[{"category": "anti-social-behaviour", "location_type": "Force", "location": {"latitude": "54.062363", "street": {"id": 1798284, "name": "On or near Windsor Road"}, "longitude": "-2.874306"}, "context": "", "outcome_status": null, "persistent_id": "", "id": 105344045, "location_subtype": "", "month": "2022-10"}, {"category": "anti-social-behaviour", "location_type": "Force", "location": {"latitude": "54.053932", "street": {"id": 1797588, "name": "On or near Whinnysty Lane"}, "longitude": "-2.892750"}, "context": "", "outcome_status": null, "persistent_id": "", "id": 105343895, "location_subtype": "", "month": "2022-10"}, {"category": "anti-social-behaviour", "location_type": "Force", "location": {"latitude": "54.050700", "street": {"id": 1797890, "name": "On or near Grizedale Place"}, "longitude": "-2.884936"}, "context": "", "outcome_status": null, "persistent_id": "", "id": 105343883, "location_subtype": "", "month": "2022-10"}, {"category": "anti-social-behaviour", "location_type": "Force", "location": {"latitude": "54.063439", "street": {"id": 1797847, "name": "On or near Cavendish Road"}, "longitude": "-2.885666"}, "context": "", "outcome_status": null, "persistent_id": "", "id": 105343856, "location_subtype": "", "month": "2022-10"}, {"category": "anti-social-behaviour", "location_type": "Force", "location": {"latitude": "54.063224", "street": {"id": 1798092, "name": "On or near Westminster Road"}, "longitude": "-2.880726"}, "context": "", "outcome_status": null, "persistent_id": "", "id": 105343787, "location_subtype": "", "month": "2022-10"}, {"category": "anti-social-behaviour", "location_type": "Force", "location": {"latitude": "54.072609", "street": {"id": 1798521, "name": "On or near Back Crescent Street"}, "longitude": "-2.866850"}, "context": "", "outcome_status": null, "persistent_id": "", "id": 105344981, "location_subtype": "", "month": "2022-10"}, {"category": "anti-social-behaviour", "location_type": "Force", "location": {"latitude": "54.060989", "street": {"id": 1798454, "name": "On or near Globe Drive"}, "longitude": "-2.869205"}, "context": "", "outcome_status": null, "persistent_id": "", "id": 105348969, "location_subtype": "", "month": "2022-10"}, {"category": "anti-social-behaviour", "location_type": "Force", "location": {"latitude": "54.055097", "street": {"id": 1797707, "name": "On or near Harrison Crescent"}, "longitude": "-2.889445"}, "context": "", "outcome_status": null, "persistent_id": "", "id": 105348852, "location_subtype": "", "month": "2022-10"}, {"category": "anti-social-behaviour", "location_type": "Force", "location": {"latitude": "54.060989", "street": {"id": 1798454, "name": "On or near Globe Drive"}, "longitude": "-2.869205"}, "context": "", "outcome_status": null, "persistent_id": "", "id": 105350142, "location_subtype": "", "month": "2022-10"}, {"category": "anti-social-behaviour", "location_type": "Force", "location": {"latitude": "54.072363", "street": {"id": 1798462, "name": "On or near Skipton Street"}, "longitude": "-2.868541"}, "context": "", "outcome_status": null, "persistent_id": "", "id": 105350108, "location_subtype": "", "month": "2022-10"}, {"category": "anti-social-behaviour", "location_type": "Force", "location": {"latitude": "54.066051", "street": {"id": 1798216, "name": "On or near Clarendon Road East"}, "longitude": "-2.877608"}, "context": "", "outcome_status": null, "persistent_id": "", "id": 105350100, "location_subtype": "", "month": "2022-10"}, {"category": "anti-social-behaviour", "location_type": "Force", "location": {"latitude": "54.072609", "street": {"id": 1798521, "name": "On or near Back Crescent Street"}, "longitude": "-2.866850"}, "context": "", "outcome_status": null, "persistent_id": "", "id": 105350071, "location_subtype": "", "month": "2022-10"}, {"category": "anti-social-behaviour", "location_type": "Force", "location": {"latitude": "54.061533", "street": {"id": 1797916, "name": "On or near Harrington Road"}, "longitude": "-2.884586"}, "context": "", "outcome_status": null, "persistent_id": "", "id": 105349892, "location_subtype": "", "month": "2022-10"}, {"category": "anti-social-behaviour", "location_type": "Force", "location": {"latitude": "54.062085", "street": {"id": 1798132, "name": "On or near Clevelands Walk"}, "longitude": "-2.879082"}, "context": "", "outcome_status": null, "persistent_id": "", "id": 105348688, "location_subtype": "", "month": "2022-10"}, {"category": "anti-social-behaviour", "location_type": "Force", "location": {"latitude": "54.071667", "street": {"id": 1798214, "name": "On or near Bath Street"}, "longitude": "-2.870421"}, "context": "", "outcome_status": null, "persistent_id": "", "id": 105348551, "location_subtype": "", "month": "2022-10"}, {"category": "anti-social-behaviour", "location_type": "Force", "location": {"latitude": "54.061043", "street": {"id": 1798171, "name": "On or near Clevelands Avenue"}, "longitude": "-2.877884"}, "context": "", "outcome_status": null, "persistent_id": "", "id": 105348470, "location_subtype": "", "month": "2022-10"}, {"category": "anti-social-behaviour", "location_type": "Force", "location": {"latitude": "54.067677", "street": {"id": 1798135, "name": "On or near Back West End Road North"}, "longitude": "-2.877688"}, "context": "", "outcome_status": null, "persistent_id": "", "id": 105346770, "location_subtype": "", "month": "2022-10"}, {"category": "anti-social-behaviour", "location_type": "Force", "location": {"latitude": "54.071667", "street": {"id": 1798214, "name": "On or near Bath Street"}, "longitude": "-2.870421"}, "context": "", "outcome_status": null, "persistent_id": "", "id": 105346787, "location_subtype": "", "month": "2022-10"}, {"category": "anti-social-behaviour", "location_type": "Force", "location": {"latitude": "54.063500", "street": {"id": 1798483, "name": "On or near Woodhill Avenue"}, "longitude": "-2.868692"}, "context": "", "outcome_status": null, "persistent_id": "", "id": 105346552, "location_subtype": "", "month": "2022-10"}, {"category": "anti-social-behaviour", "location_type": "Force", "location": {"latitude": "54.064008", "street": {"id": 1798241, "name": "On or near Regent Road"}, "longitude": "-2.876678"}, "context": "", "outcome_status": null, "persistent_id": "", "id": 105346764, "location_subtype": "", "month": "2022-10"}, {"category": "anti-social-behaviour", "location_type": "Force", "location": {"latitude": "54.060989", "street": {"id": 1798454, "name": "On or near Globe Drive"}, "longitude": "-2.869205"}, "context": "", "outcome_status": null, "persistent_id": "", "id": 105345248, "location_subtype": "", "month": "2022-10"}, {"category": "anti-social-behaviour", "location_type": "Force", "location": {"latitude": "54.060308", "street": {"id": 1798573, "name": "On or near Halton Court"}, "longitude": "-2.863920"}, "context": "", "outcome_status": null, "persistent_id": "", "id": 105345015, "location_subtype": "", "month": "2022-10"}, {"category": "anti-social-behaviour", "location_type": "Force", "location": {"latitude": "54.067457", "street": {"id": 1798222, "name": "On or near Grove Street"}, "longitude": "-2.875865"}, "context": "", "outcome_status": null, "persistent_id": "", "id": 105344997, "location_subtype": "", "month": "2022-10"}, {"category": "anti-social-behaviour", "location_type": "Force", "location": {"latitude": "54.064504", "street": {"id": 1797800, "name": "On or near Back Winterdyne Terrace"}, "longitude": "-2.883931"}, "context": "", "outcome_status": null, "persistent_id": "", "id": 105345296, "location_subtype": "", "month": "2022-10"}, {"category": "anti-social-behaviour", "location_type": "Force", "location": {"latitude": "54.052099", "street": {"id": 1798071, "name": "On or near Ashcroft"}, "longitude": "-2.881682"}, "context": "", "outcome_status": null, "persistent_id": "", "id": 105346055, "location_subtype": "", "month": "2022-10"}, {"category": "anti-social-behaviour", "location_type": "Force", "location": {"latitude": "54.059176", "street": {"id": 1797567, "name": "On or near Rydal Road"}, "longitude": "-2.890983"}, "context": "", "outcome_status": null, "persistent_id": "", "id": 105347663, "location_subtype": "", "month": "2022-10"}, {"category": "anti-social-behaviour", "location_type": "Force", "location": {"latitude": "54.060656", "street": {"id": 1797814, "name": "On or near Raglan Road"}, "longitude": "-2.886508"}, "context": "", "outcome_status": null, "persistent_id": "", "id": 105344989, "location_subtype": "", "month": "2022-10"}, {"category": "anti-social-behaviour", "location_type": "Force", "location": {"latitude": "54.066660", "street": {"id": 1798193, "name": "On or near Claremont Crescent"}, "longitude": "-2.877941"}, "context": "", "outcome_status": null, "persistent_id": "", "id": 105346157, "location_subtype": "", "month": "2022-10"}, {"category": "anti-social-behaviour", "location_type": "Force", "location": {"latitude": "54.072068", "street": {"id": 1798509, "name": "On or near Derby Street"}, "longitude": "-2.867052"}, "context": "", "outcome_status": null, "persistent_id": "", "id": 105346291, "location_subtype": "", "month": "2022-10"}, {"category": "anti-social-behaviour", "location_type": "Force", "location": {"latitude": "54.069431", "street": {"id": 1798398, "name": "On or near Baycliffe Crescent"}, "longitude": "-2.870084"}, "context": "", "outcome_status": null, "persistent_id": "", "id": 105346373, "location_subtype": "", "month": "2022-10"}, {"category": "anti-social-behaviour", "location_type": "Force", "location": {"latitude": "54.064008", "street": {"id": 1798241, "name": "On or near Regent Road"}, "longitude": "-2.876678"}, "context": "", "outcome_status": null, "persistent_id": "", "id": 105347052, "location_subtype": "", "month": "2022-10"}, {"category": "anti-social-behaviour", "location_type": "Force", "location": {"latitude": "54.067457", "street": {"id": 1798222, "name": "On or near Grove Street"}, "longitude": "-2.875865"}, "context": "", "outcome_status": null, "persistent_id": "", "id": 105347157, "location_subtype": "", "month": "2022-10"}, {"category": "anti-social-behaviour", "location_type": "Force", "location": {"latitude": "54.052099", "street": {"id": 1798071, "name": "On or near Ashcroft"}, "longitude": "-2.881682"}, "context": "", "outcome_status": null, "persistent_id": "", "id": 105347167, "location_subtype": "", "month": "2022-10"}, {"category": "anti-social-behaviour", "location_type": "Force", "location": {"latitude": "54.062411", "street": {"id": 1798081, "name": "On or near Back Avondale Road (west)"}, "longitude": "-2.881228"}, "context": "", "outcome_status": null, "persistent_id": "", "id": 105347195, "location_subtype": "", "month": "2022-10"}, {"category": "anti-social-behaviour", "location_type": "Force", "location": {"latitude": "54.062282", "street": {"id": 1798059, "name": "On or near Westminster Mews"}, "longitude": "-2.881730"}, "context": "", "outcome_status": null, "persistent_id": "", "id": 105347297, "location_subtype": "", "month": "2022-10"}, {"category": "anti-social-behaviour", "location_type": "Force", "location": {"latitude": "54.072338", "street": {"id": 1798168, "name": "On or near West View Road"}, "longitude": "-2.869564"}, "context": "", "outcome_status": null, "persistent_id": "", "id": 105347322, "location_subtype": "", "month": "2022-10"}, {"category": "anti-social-behaviour", "location_type": "Force", "location": {"latitude": "54.062363", "street": {"id": 1798284, "name": "On or near Windsor Road"}, "longitude": "-2.874306"}, "context": "", "outcome_status": null, "persistent_id": "", "id": 105347748, "location_subtype": "", "month": "2022-10"}, {"category": "anti-social-behaviour", "location_type": "Force", "location": {"latitude": "54.061344", "street": {"id": 1798532, "name": "On or near Thurland Court"}, "longitude": "-2.864827"}, "context": "", "outcome_status": null, "persistent_id": "", "id": 105348263, "location_subtype": "", "month": "2022-10"}, {"category": "anti-social-behaviour", "location_type": "Force", "location": {"latitude": "54.060989", "street": {"id": 1798454, "name": "On or near Globe Drive"}, "longitude": "-2.869205"}, "context": "", "outcome_status": null, "persistent_id": "", "id": 105349196, "location_subtype": "", "month": "2022-10"}, {"category": "anti-social-behaviour", "location_type": "Force", "location": {"latitude": "54.052349", "street": {"id": 1798018, "name": "On or near Crofters Fold"}, "longitude": "-2.881871"}, "context": "", "outcome_status": null, "persistent_id": "", "id": 105349236, "location_subtype": "", "month": "2022-10"}, {"category": "anti-social-behaviour", "location_type": "Force", "location": {"latitude": "54.067589", "street": {"id": 1798221, "name": "On or near Cedar Street"}, "longitude": "-2.874981"}, "context": "", "outcome_status": null, "persistent_id": "", "id": 105349328, "location_subtype": "", "month": "2022-10"}, {"category": "anti-social-behaviour", "location_type": "Force", "location": {"latitude": "54.064462", "street": {"id": 1797971, "name": "On or near West Street"}, "longitude": "-2.882280"}, "context": "", "outcome_status": null, "persistent_id": "", "id": 105348294, "location_subtype": "", "month": "2022-10"}, {"category": "anti-social-behaviour", "location_type": "Force", "location": {"latitude": "54.064305", "street": {"id": 1798108, "name": "On or near Clarendon Road West"}, "longitude": "-2.880306"}, "context": "", "outcome_status": null, "persistent_id": "", "id": 105348378, "location_subtype": "", "month": "2022-10"}, {"category": "anti-social-behaviour", "location_type": "Force", "location": {"latitude": "54.072609", "street": {"id": 1798521, "name": "On or near Back Crescent Street"}, "longitude": "-2.866850"}, "context": "", "outcome_status": null, "persistent_id": "", "id": 105347017, "location_subtype": "", "month": "2022-10"}, {"category": "anti-social-behaviour", "location_type": "Force", "location": {"latitude": "54.052150", "street": {"id": 1797968, "name": "On or near Hale Carr Lane"}, "longitude": "-2.883317"}, "context": "", "outcome_status": null, "persistent_id": "", "id": 105346999, "location_subtype": "", "month": "2022-10"}, {"category": "anti-social-behaviour", "location_type": "Force", "location": {"latitude": "54.071103", "street": {"id": 1798512, "name": "On or near "}, "longitude": "-2.866299"}, "context": "", "outcome_status": null, "persistent_id": "", "id": 105346009, "location_subtype": "", "month": "2022-10"}, {"category": "anti-social-behaviour", "location_type": "Force", "location": {"latitude": "54.062282", "street": {"id": 1798059, "name": "On or near Westminster Mews"}, "longitude": "-2.881730"}, "context": "", "outcome_status": null, "persistent_id": "", "id": 105345680, "location_subtype": "", "month": "2022-10"}, {"category": "anti-social-behaviour", "location_type": "Force", "location": {"latitude": "54.059176", "street": {"id": 1797567, "name": "On or near Rydal Road"}, "longitude": "-2.890983"}, "context": "", "outcome_status": null, "persistent_id": "", "id": 105345576, "location_subtype": "", "month": "2022-10"}, {"category": "anti-social-behaviour", "location_type": "Force", "location": {"latitude": "54.071667", "street": {"id": 1798214, "name": "On or near Bath Street"}, "longitude": "-2.870421"}, "context": "", "outcome_status": null, "persistent_id": "", "id": 105350891, "location_subtype": "", "month": "2022-10"}, {"category": "anti-social-behaviour", "location_type": "Force", "location": {"latitude": "54.057068", "street": {"id": 1797806, "name": "On or near Boscombe Avenue"}, "longitude": "-2.886722"}, "context": "", "outcome_status": null, "persistent_id": "", "id": 105350862, "location_subtype": "", "month": "2022-10"}, {"category": "anti-social-behaviour", "location_type": "Force", "location": {"latitude": "54.071667", "street": {"id": 1798214, "name": "On or near Bath Street"}, "longitude": "-2.870421"}, "context": "", "outcome_status": null, "persistent_id": "", "id": 105350846, "location_subtype": "", "month": "2022-10"}, {"category": "anti-social-behaviour", "location_type": "Force", "location": {"latitude": "54.064008", "street": {"id": 1798241, "name": "On or near Regent Road"}, "longitude": "-2.876678"}, "context": "", "outcome_status": null, "persistent_id": "", "id": 105350265, "location_subtype": "", "month": "2022-10"}, {"category": "anti-social-behaviour", "location_type": "Force", "location": {"latitude": "54.064263", "street": {"id": 1798317, "name": "On or near Lake Avenue"}, "longitude": "-2.873796"}, "context": "", "outcome_status": null, "persistent_id": "", "id": 105350794, "location_subtype": "", "month": "2022-10"}, {"category": "anti-social-behaviour", "location_type": "Force", "location": {"latitude": "54.064008", "street": {"id": 1798241, "name": "On or near Regent Road"}, "longitude": "-2.876678"}, "context": "", "outcome_status": null, "persistent_id": "", "id": 105350731, "location_subtype": "", "month": "2022-10"}, {"category": "anti-social-behaviour", "location_type": "Force", "location": {"latitude": "54.064008", "street": {"id": 1798241, "name": "On or near Regent Road"}, "longitude": "-2.876678"}, "context": "", "outcome_status": null, "persistent_id": "", "id": 105350597, "location_subtype": "", "month": "2022-10"}, {"category": "anti-social-behaviour", "location_type": "Force", "location": {"latitude": "54.070607", "street": {"id": 1798542, "name": "On or near "}, "longitude": "-2.865310"}, "context": "", "outcome_status": null, "persistent_id": "", "id": 105350404, "location_subtype": "", "month": "2022-10"}, {"category": "anti-social-behaviour", "location_type": "Force", "location": {"latitude": "54.062109", "street": {"id": 1798665, "name": "On or near Gaisgill Avenue"}, "longitude": "-2.860886"}, "context": "", "outcome_status": null, "persistent_id": "", "id": 105350396, "location_subtype": "", "month": "2022-10"}, {"category": "anti-social-behaviour", "location_type": "Force", "location": {"latitude": "54.059205", "street": {"id": 1797987, "name": "On or near Harewood Avenue"}, "longitude": "-2.883360"}, "context": "", "outcome_status": null, "persistent_id": "", "id": 105344566, "location_subtype": "", "month": "2022-10"}, {"category": "anti-social-behaviour", "location_type": "Force", "location": {"latitude": "54.067457", "street": {"id": 1798222, "name": "On or near Grove Street"}, "longitude": "-2.875865"}, "context": "", "outcome_status": null, "persistent_id": "", "id": 105351430, "location_subtype": "", "month": "2022-10"}, {"category": "anti-social-behaviour", "location_type": "Force", "location": {"latitude": "54.067457", "street": {"id": 1798222, "name": "On or near Grove Street"}, "longitude": "-2.875865"}, "context": "", "outcome_status": null, "persistent_id": "", "id": 105351355, "location_subtype": "", "month": "2022-10"}, {"category": "anti-social-behaviour", "location_type": "Force", "location": {"latitude": "54.060595", "street": {"id": 1798126, "name": "On or near Limes Avenue"}, "longitude": "-2.880044"}, "context": "", "outcome_status": null, "persistent_id": "", "id": 105350277, "location_subtype": "", "month": "2022-10"}, {"category": "anti-social-behaviour", "location_type": "Force", "location": {"latitude": "54.072363", "street": {"id": 1798462, "name": "On or near Skipton Street"}, "longitude": "-2.868541"}, "context": "", "outcome_status": null, "persistent_id": "", "id": 105349776, "location_subtype": "", "month": "2022-10"}, {"category": "anti-social-behaviour", "location_type": "Force", "location": {"latitude": "54.064979", "street": {"id": 1797777, "name": "On or near Sandylands Promenade"}, "longitude": "-2.886554"}, "context": "", "outcome_status": null, "persistent_id": "", "id": 105349721, "location_subtype": "", "month": "2022-10"}, {"category": "anti-social-behaviour", "location_type": "Force", "location": {"latitude": "54.059398", "street": {"id": 1798696, "name": "On or near Crewgarth Road"}, "longitude": "-2.860494"}, "context": "", "outcome_status": null, "persistent_id": "", "id": 105349656, "location_subtype": "", "month": "2022-10"}, {"category": "anti-social-behaviour", "location_type": "Force", "location": {"latitude": "54.065717", "street": {"id": 1798324, "name": "On or near Albany Road"}, "longitude": "-2.872772"}, "context": "", "outcome_status": null, "persistent_id": "", "id": 105349617, "location_subtype": "", "month": "2022-10"}, {"category": "anti-social-behaviour", "location_type": "Force", "location": {"latitude": "54.052150", "street": {"id": 1797968, "name": "On or near Hale Carr Lane"}, "longitude": "-2.883317"}, "context": "", "outcome_status": null, "persistent_id": "", "id": 105349572, "location_subtype": "", "month": "2022-10"}, {"category": "anti-social-behaviour", "location_type": "Force", "location": {"latitude": "54.060989", "street": {"id": 1798454, "name": "On or near Globe Drive"}, "longitude": "-2.869205"}, "context": "", "outcome_status": null, "persistent_id": "", "id": 105349533, "location_subtype": "", "month": "2022-10"}, {"category": "anti-social-behaviour", "location_type": "Force", "location": {"latitude": "54.061021", "street": {"id": 1798491, "name": "On or near "}, "longitude": "-2.867265"}, "context": "", "outcome_status": null, "persistent_id": "", "id": 105350705, "location_subtype": "", "month": "2022-10"}, {"category": "anti-social-behaviour", "location_type": "Force", "location": {"latitude": "54.063224", "street": {"id": 1798092, "name": "On or near Westminster Road"}, "longitude": "-2.880726"}, "context": "", "outcome_status": null, "persistent_id": "", "id": 105349468, "location_subtype": "", "month": "2022-10"}, {"category": "anti-social-behaviour", "location_type": "Force", "location": {"latitude": "54.061283", "street": {"id": 1797794, "name": "On or near Granville Road"}, "longitude": "-2.886704"}, "context": "", "outcome_status": null, "persistent_id": "", "id": 105344544, "location_subtype": "", "month": "2022-10"}, {"category": "anti-social-behaviour", "location_type": "Force", "location": {"latitude": "54.060989", "street": {"id": 1798454, "name": "On or near Globe Drive"}, "longitude": "-2.869205"}, "context": "", "outcome_status": null, "persistent_id": "", "id": 105345070, "location_subtype": "", "month": "2022-10"}, {"category": "anti-social-behaviour", "location_type": "Force", "location": {"latitude": "54.059712", "street": {"id": 1797704, "name": "On or near Dalton Road"}, "longitude": "-2.888993"}, "context": "", "outcome_status": null, "persistent_id": "", "id": 105344350, "location_subtype": "", "month": "2022-10"}, {"category": "anti-social-behaviour", "location_type": "Force", "location": {"latitude": "54.067122", "street": {"id": 1798447, "name": "On or near Highgrove Close"}, "longitude": "-2.868768"}, "context": "", "outcome_status": null, "persistent_id": "", "id": 105344301, "location_subtype": "", "month": "2022-10"}, {"category": "anti-social-behaviour", "location_type": "Force", "location": {"latitude": "54.054653", "street": {"id": 1797785, "name": "On or near "}, "longitude": "-2.887495"}, "context": "", "outcome_status": null, "persistent_id": "", "id": 105344298, "location_subtype": "", "month": "2022-10"}, {"category": "anti-social-behaviour", "location_type": "Force", "location": {"latitude": "54.054653", "street": {"id": 1797785, "name": "On or near "}, "longitude": "-2.887495"}, "context": "", "outcome_status": null, "persistent_id": "", "id": 105344295, "location_subtype": "", "month": "2022-10"}, {"category": "anti-social-behaviour", "location_type": "Force", "location": {"latitude": "54.060308", "street": {"id": 1798573, "name": "On or near Halton Court"}, "longitude": "-2.863920"}, "context": "", "outcome_status": null, "persistent_id": "", "id": 105344280, "location_subtype": "", "month": "2022-10"}, {"category": "anti-social-behaviour", "location_type": "Force", "location": {"latitude": "54.060989", "street": {"id": 1798454, "name": "On or near Globe Drive"}, "longitude": "-2.869205"}, "context": "", "outcome_status": null, "persistent_id": "", "id": 105350340, "location_subtype": "", "month": "2022-10"}, {"category": "anti-social-behaviour", "location_type": "Force", "location": {"latitude": "54.060058", "street": {"id": 1798517, "name": "On or near Westgate"}, "longitude": "-2.863670"}, "context": "", "outcome_status": null, "persistent_id": "", "id": 105344254, "location_subtype": "", "month": "2022-10"}, {"category": "anti-social-behaviour", "location_type": "Force", "location": {"latitude": "54.063224", "street": {"id": 1798092, "name": "On or near Westminster Road"}, "longitude": "-2.880726"}, "context": "", "outcome_status": null, "persistent_id": "", "id": 105344805, "location_subtype": "", "month": "2022-10"}, {"category": "anti-social-behaviour", "location_type": "Force", "location": {"latitude": "54.056094", "street": {"id": 1797256, "name": "On or near Royds Avenue"}, "longitude": "-2.891956"}, "context": "", "outcome_status": null, "persistent_id": "", "id": 105349088, "location_subtype": "", "month": "2022-10"}, {"category": "anti-social-behaviour", "location_type": "Force", "location": {"latitude": "54.071667", "street": {"id": 1798214, "name": "On or near Bath Street"}, "longitude": "-2.870421"}, "context": "", "outcome_status": null, "persistent_id": "", "id": 105344787, "location_subtype": "", "month": "2022-10"}, {"category": "anti-social-behaviour", "location_type": "Force", "location": {"latitude": "54.063308", "street": {"id": 1798208, "name": "On or near Balmoral Road"}, "longitude": "-2.877779"}, "context": "", "outcome_status": null, "persistent_id": "", "id": 105344213, "location_subtype": "", "month": "2022-10"}, {"category": "anti-social-behaviour", "location_type": "Force", "location": {"latitude": "54.063500", "street": {"id": 1798483, "name": "On or near Woodhill Avenue"}, "longitude": "-2.868692"}, "context": "", "outcome_status": null, "persistent_id": "", "id": 105344122, "location_subtype": "", "month": "2022-10"}, {"category": "anti-social-behaviour", "location_type": "Force", "location": {"latitude": "54.062282", "street": {"id": 1798059, "name": "On or near Westminster Mews"}, "longitude": "-2.881730"}, "context": "", "outcome_status": null, "persistent_id": "", "id": 105349070, "location_subtype": "", "month": "2022-10"}, {"category": "anti-social-behaviour", "location_type": "Force", "location": {"latitude": "54.060997", "street": {"id": 1797866, "name": "On or near Halden Road"}, "longitude": "-2.885369"}, "context": "", "outcome_status": null, "persistent_id": "", "id": 105348990, "location_subtype": "", "month": "2022-10"}, {"category": "anti-social-behaviour", "location_type": "Force", "location": {"latitude": "54.064305", "street": {"id": 1798108, "name": "On or near Clarendon Road West"}, "longitude": "-2.880306"}, "context": "", "outcome_status": null, "persistent_id": "", "id": 105344070, "location_subtype": "", "month": "2022-10"}, {"category": "bicycle-theft", "location_type": "Force", "location": {"latitude": "54.059905", "street": {"id": 1797641, "name": "On or near Grosvenor Road"}, "longitude": "-2.890800"}, "context": "", "outcome_status": {"category": "Under investigation", "date": "2022-10"}, "persistent_id": "84de3aa2b47a7feeef717af0a05947a6558cf61d3e4ee13ca3361bd0960f76ba", "id": 105341054, "location_subtype": "", "month": "2022-10"}, {"category": "bicycle-theft", "location_type": "Force", "location": {"latitude": "54.072415", "street": {"id": 1798561, "name": "On or near Tunstall Street"}, "longitude": "-2.865073"}, "context": "", "outcome_status": {"category": "Under investigation", "date": "2022-10"}, "persistent_id": "093f5fbe0aa39b6cc7858f17fbdb45dc9f531b75d3782b8b81757932c6ce2c0f", "id": 105341111, "location_subtype": "", "month": "2022-10"}, {"category": "bicycle-theft", "location_type": "Force", "location": {"latitude": "54.068111", "street": {"id": 1798385, "name": "On or near West End Road"}, "longitude": "-2.871187"}, "context": "", "outcome_status": {"category": "Investigation complete; no suspect identified", "date": "2022-10"}, "persistent_id": "ea73d04f6eddd5f2f7089a13de25fba0c4ca933209768b1c6af92f889a2c31af", "id": 105341156, "location_subtype": "", "month": "2022-10"}, {"category": "bicycle-theft", "location_type": "Force", "location": {"latitude": "54.072415", "street": {"id": 1798561, "name": "On or near Tunstall Street"}, "longitude": "-2.865073"}, "context": "", "outcome_status": {"category": "Investigation complete; no suspect identified", "date": "2022-10"}, "persistent_id": "263d06a262228f7a41189d0c1acf047e123aa0bc2473db90e5d1a795bb77e3d0", "id": 105341038, "location_subtype": "", "month": "2022-10"}, {"category": "bicycle-theft", "location_type": "Force", "location": {"latitude": "54.064408", "street": {"id": 1797839, "name": "On or near Heysham Road"}, "longitude": "-2.885931"}, "context": "", "outcome_status": {"category": "Investigation complete; no suspect identified", "date": "2022-10"}, "persistent_id": "9036719a28031cb58cf611948fd0496259636c9d2530ee8bbbb16847144af81e", "id": 105341012, "location_subtype": "", "month": "2022-10"}, {"category": "burglary", "location_type": "Force", "location": {"latitude": "54.058902", "street": {"id": 1798438, "name": "On or near Westcliffe Drive"}, "longitude": "-2.869360"}, "context": "", "outcome_status": {"category": "Under investigation", "date": "2022-10"}, "persistent_id": "3cc6c6e5d42092d1e50fb8af0e63793c7a3bb41857565de07e66606a411026ff", "id": 105339932, "location_subtype": "", "month": "2022-10"}, {"category": "burglary", "location_type": "Force", "location": {"latitude": "54.071103", "street": {"id": 1798512, "name": "On or near "}, "longitude": "-2.866299"}, "context": "", "outcome_status": {"category": "Investigation complete; no suspect identified", "date": "2022-10"}, "persistent_id": "162b1cb4f93bb7896d9bcf8592f75e59d021a58f65725d7b4cfa9ad6c8469fe9", "id": 105326956, "location_subtype": "", "month": "2022-10"}, {"category": "burglary", "location_type": "Force", "location": {"latitude": "54.049930", "street": {"id": 1797823, "name": "On or near Bowland Road"}, "longitude": "-2.885760"}, "context": "", "outcome_status": {"category": "Under investigation", "date": "2022-10"}, "persistent_id": "191b056218882c9203b69a89c2154c892f09820712556530f3c87f86aa2b97e1", "id": 105339145, "location_subtype": "", "month": "2022-10"}, {"category": "burglary", "location_type": "Force", "location": {"latitude": "54.065597", "street": {"id": 1798612, "name": "On or near Hestham Crescent"}, "longitude": "-2.862013"}, "context": "", "outcome_status": {"category": "Under investigation", "date": "2022-10"}, "persistent_id": "486da1a4401f3eb40fab4c63150aac74c59f65f86a951f86facc80a338b761e9", "id": 105327883, "location_subtype": "", "month": "2022-10"}, {"category": "criminal-damage-arson", "location_type": "Force", "location": {"latitude": "54.059176", "street": {"id": 1797567, "name": "On or near Rydal Road"}, "longitude": "-2.890983"}, "context": "", "outcome_status": {"category": "Unable to prosecute suspect", "date": "2022-10"}, "persistent_id": "d39122a30370206af8afcbb93c2c4298c1bc9f1cb3f411fd85a0ac9c648aed68", "id": 105335696, "location_subtype": "", "month": "2022-10"}, {"category": "criminal-damage-arson", "location_type": "Force", "location": {"latitude": "54.072068", "street": {"id": 1798509, "name": "On or near Derby Street"}, "longitude": "-2.867052"}, "context": "", "outcome_status": {"category": "Under investigation", "date": "2022-10"}, "persistent_id": "ee1deded7d0e33d3285c3d595065a8f76f221d1b7ea932ee011a646f23280fd3", "id": 105327523, "location_subtype": "", "month": "2022-10"}, {"category": "criminal-damage-arson", "location_type": "Force", "location": {"latitude": "54.071667", "street": {"id": 1798214, "name": "On or near Bath Street"}, "longitude": "-2.870421"}, "context": "", "outcome_status": {"category": "Under investigation", "date": "2022-10"}, "persistent_id": "4cec265b1d81495107f6c8a6f5ccc104d7edd15453bc2d137150b7c228b53081", "id": 105332970, "location_subtype": "", "month": "2022-10"}, {"category": "criminal-damage-arson", "location_type": "Force", "location": {"latitude": "54.064008", "street": {"id": 1798241, "name": "On or near Regent Road"}, "longitude": "-2.876678"}, "context": "", "outcome_status": {"category": "Investigation complete; no suspect identified", "date": "2022-10"}, "persistent_id": "d04d9b2ad1fcafe51a2d195dccf50e413768cf0c577fcd742c363f4de81d7f12", "id": 105335082, "location_subtype": "", "month": "2022-10"}, {"category": "criminal-damage-arson", "location_type": "Force", "location": {"latitude": "54.069621", "street": {"id": 1798457, "name": "On or near Kilnbank Avenue"}, "longitude": "-2.868682"}, "context": "", "outcome_status": {"category": "Under investigation", "date": "2022-10"}, "persistent_id": "65d2180887d572d6697ec783a36dde8e015f9d80efb655909f3202781824cd4b", "id": 105332711, "location_subtype": "", "month": "2022-10"}, {"category": "criminal-damage-arson", "location_type": "Force", "location": {"latitude": "54.069431", "street": {"id": 1798398, "name": "On or near Baycliffe Crescent"}, "longitude": "-2.870084"}, "context": "", "outcome_status": {"category": "Under investigation", "date": "2022-10"}, "persistent_id": "b8cc05117d9f996975ff3d8d5b00a8a298551992a2de4cee3f2d9abb8430d301", "id": 105335831, "location_subtype": "", "month": "2022-10"}, {"category": "criminal-damage-arson", "location_type": "Force", "location": {"latitude": "54.058902", "street": {"id": 1798438, "name": "On or near Westcliffe Drive"}, "longitude": "-2.869360"}, "context": "", "outcome_status": {"category": "Investigation complete; no suspect identified", "date": "2022-10"}, "persistent_id": "f7aa277a8986b3d0b13230e340df274ec47e9f18a88251fad8b8ae575d3665b2", "id": 105335542, "location_subtype": "", "month": "2022-10"}, {"category": "criminal-damage-arson", "location_type": "Force", "location": {"latitude": "54.072315", "street": {"id": 1798499, "name": "On or near Graham Street"}, "longitude": "-2.867699"}, "context": "", "outcome_status": {"category": "Under investigation", "date": "2022-10"}, "persistent_id": "eb31ed612f28d60c058ef62056ec9cc06827bb680f53b788c61e1efa30397fa6", "id": 105333004, "location_subtype": "", "month": "2022-10"}, {"category": "criminal-damage-arson", "location_type": "Force", "location": {"latitude": "54.059176", "street": {"id": 1797567, "name": "On or near Rydal Road"}, "longitude": "-2.890983"}, "context": "", "outcome_status": {"category": "Under investigation", "date": "2022-10"}, "persistent_id": "c3ee6fb83dae14ca827d77050986969412c0d277835652c05c1b84e0a7f48635", "id": 105331921, "location_subtype": "", "month": "2022-10"}, {"category": "criminal-damage-arson", "location_type": "Force", "location": {"latitude": "54.069431", "street": {"id": 1798398, "name": "On or near Baycliffe Crescent"}, "longitude": "-2.870084"}, "context": "", "outcome_status": {"category": "Under investigation", "date": "2022-10"}, "persistent_id": "073db727dbb8b0a316bb72d1ad7253fe094b2bb40748f9ee5992257b7d934098", "id": 105331951, "location_subtype": "", "month": "2022-10"}, {"category": "criminal-damage-arson", "location_type": "Force", "location": {"latitude": "54.066051", "street": {"id": 1798216, "name": "On or near Clarendon Road East"}, "longitude": "-2.877608"}, "context": "", "outcome_status": {"category": "Under investigation", "date": "2022-10"}, "persistent_id": "659200e1f3b2f92a663c8e8c6aea3ce5d5b8fd38a040d3cd66883bfb90b9e0ca", "id": 105331999, "location_subtype": "", "month": "2022-10"}, {"category": "criminal-damage-arson", "location_type": "Force", "location": {"latitude": "54.064408", "street": {"id": 1797839, "name": "On or near Heysham Road"}, "longitude": "-2.885931"}, "context": "", "outcome_status": {"category": "Under investigation", "date": "2022-10"}, "persistent_id": "a111ed29d312722897e77ac7ffdae94321af1552adb7d978c2494383dbdbea06", "id": 105332007, "location_subtype": "", "month": "2022-10"}, {"category": "criminal-damage-arson", "location_type": "Force", "location": {"latitude": "54.064946", "street": {"id": 1798173, "name": "On or near "}, "longitude": "-2.878807"}, "context": "", "outcome_status": {"category": "Under investigation", "date": "2022-10"}, "persistent_id": "5b0239825128b54afe6b918ad80edf417272dbf4b987bdaffc1fb3c304941b4c", "id": 105333811, "location_subtype": "", "month": "2022-10"}, {"category": "criminal-damage-arson", "location_type": "Force", "location": {"latitude": "54.060951", "street": {"id": 1797946, "name": "On or near Hampton Road"}, "longitude": "-2.884299"}, "context": "", "outcome_status": {"category": "Under investigation", "date": "2022-10"}, "persistent_id": "e26b95bd1b6d8cc17fb87fa1575108d69b824f43ec76a061db5bddde2d9ca645", "id": 105342169, "location_subtype": "", "month": "2022-10"}, {"category": "criminal-damage-arson", "location_type": "Force", "location": {"latitude": "54.072415", "street": {"id": 1798561, "name": "On or near Tunstall Street"}, "longitude": "-2.865073"}, "context": "", "outcome_status": {"category": "Investigation complete; no suspect identified", "date": "2022-10"}, "persistent_id": "bc892b0ba2de41de6608cd2bab1d2ad491ccae100ba768a9d3c48cfda2443546", "id": 105333835, "location_subtype": "", "month": "2022-10"}, {"category": "criminal-damage-arson", "location_type": "Force", "location": {"latitude": "54.063224", "street": {"id": 1798092, "name": "On or near Westminster Road"}, "longitude": "-2.880726"}, "context": "", "outcome_status": {"category": "Under investigation", "date": "2022-10"}, "persistent_id": "e592ab35d4f982cc687d3dd70a88bfc5b6031bba31a25b8e3c49eda65c782d4c", "id": 105332735, "location_subtype": "", "month": "2022-10"}, {"category": "criminal-damage-arson", "location_type": "Force", "location": {"latitude": "54.072338", "street": {"id": 1798168, "name": "On or near West View Road"}, "longitude": "-2.869564"}, "context": "", "outcome_status": {"category": "Investigation complete; no suspect identified", "date": "2022-10"}, "persistent_id": "b92652e2f463ca60a0a8104ce0abfc95414a57be692d23a0b3f581f47f68198b", "id": 105341932, "location_subtype": "", "month": "2022-10"}, {"category": "criminal-damage-arson", "location_type": "Force", "location": {"latitude": "54.071243", "street": {"id": 1798498, "name": "On or near Edward Street"}, "longitude": "-2.868059"}, "context": "", "outcome_status": {"category": "Under investigation", "date": "2022-10"}, "persistent_id": "6bee2efce031a322bac948aa5d6ea5b8519d031fff9a3f2ea038b6d02b43045f", "id": 105327610, "location_subtype": "", "month": "2022-10"}, {"category": "criminal-damage-arson", "location_type": "Force", "location": {"latitude": "54.061394", "street": {"id": 1797643, "name": "On or near Craig Street"}, "longitude": "-2.889961"}, "context": "", "outcome_status": {"category": "Unable to prosecute suspect", "date": "2022-10"}, "persistent_id": "12e83ffb2312f9e2439f01331ad40236e798342df187fabc541a17ffb2486f34", "id": 105331716, "location_subtype": "", "month": "2022-10"}, {"category": "criminal-damage-arson", "location_type": "Force", "location": {"latitude": "54.067724", "street": {"id": 1798530, "name": "On or near Carleton Street"}, "longitude": "-2.864975"}, "context": "", "outcome_status": {"category": "Unable to prosecute suspect", "date": "2022-10"}, "persistent_id": "0682249bf8631b564ae7206fbc6664346958badbbbbb789ea4bad19cc1c52d1b", "id": 105335705, "location_subtype": "", "month": "2022-10"}, {"category": "criminal-damage-arson", "location_type": "Force", "location": {"latitude": "54.062720", "street": {"id": 1798115, "name": "On or near Back Avondale Road (east)"}, "longitude": "-2.880761"}, "context": "", "outcome_status": {"category": "Investigation complete; no suspect identified", "date": "2022-10"}, "persistent_id": "facdeced2bde4cfc9c15997f41b0d2a54db2f16b9b275345e0992943b6f74ccf", "id": 105331609, "location_subtype": "", "month": "2022-10"}, {"category": "criminal-damage-arson", "location_type": "Force", "location": {"latitude": "54.063439", "street": {"id": 1797847, "name": "On or near Cavendish Road"}, "longitude": "-2.885666"}, "context": "", "outcome_status": {"category": "Under investigation", "date": "2022-10"}, "persistent_id": "5aed778881c1e3e6dd34a3d50e930569d1748960e76a793303a9ddaa4faa2003", "id": 105331054, "location_subtype": "", "month": "2022-10"}, {"category": "criminal-damage-arson", "location_type": "Force", "location": {"latitude": "54.066022", "street": {"id": 1798486, "name": "On or near Janine Close"}, "longitude": "-2.868011"}, "context": "", "outcome_status": {"category": "Investigation complete; no suspect identified", "date": "2022-10"}, "persistent_id": "53d4a4a5a6de3915b7ef8c25b1db9ac63aa50c3f862642236881a4e2380c6591", "id": 105331188, "location_subtype": "", "month": "2022-10"}, {"category": "criminal-damage-arson", "location_type": "Force", "location": {"latitude": "54.064970", "street": {"id": 1798251, "name": "On or near Chatsworth Road"}, "longitude": "-2.876668"}, "context": "", "outcome_status": {"category": "Under investigation", "date": "2022-10"}, "persistent_id": "f4b0cb101578588a5eb8d3a36fa7442f9fb659533c96e9c03c527b3578af60d2", "id": 105342128, "location_subtype": "", "month": "2022-10"}, {"category": "criminal-damage-arson", "location_type": "Force", "location": {"latitude": "54.053622", "street": {"id": 1797511, "name": "On or near Twemlow Parade"}, "longitude": "-2.893278"}, "context": "", "outcome_status": {"category": "Under investigation", "date": "2022-10"}, "persistent_id": "6aae868f376dc1ac3b53ab8b1b6372e7c4a89223d68b54cc5daad50c530952b7", "id": 105342066, "location_subtype": "", "month": "2022-10"}, {"category": "criminal-damage-arson", "location_type": "Force", "location": {"latitude": "54.070360", "street": {"id": 1798427, "name": "On or near Morecambe"}, "longitude": "-2.869584"}, "context": "", "outcome_status": {"category": "Under investigation", "date": "2022-10"}, "persistent_id": "129b63c4a5217661a67653def39a3916962d0789c57ff75be5492679ec60bb69", "id": 105341951, "location_subtype": "", "month": "2022-10"}, {"category": "drugs", "location_type": "Force", "location": {"latitude": "54.068698", "street": {"id": 1798489, "name": "On or near Gardens Grove"}, "longitude": "-2.868266"}, "context": "", "outcome_status": {"category": "Under investigation", "date": "2022-10"}, "persistent_id": "e50cce387e21c6cd19f2c39d398eb41723f380e593cca054f3e6c78af6ac54d7", "id": 105343607, "location_subtype": "", "month": "2022-10"}, {"category": "drugs", "location_type": "Force", "location": {"latitude": "54.061962", "street": {"id": 1798369, "name": "On or near Bellamy Avenue"}, "longitude": "-2.871272"}, "context": "", "outcome_status": {"category": "Under investigation", "date": "2022-10"}, "persistent_id": "a5401643ae9c15d3cfcf250242acc291e469d69e0ea9c94de1e704cfccbee68e", "id": 105328619, "location_subtype": "", "month": "2022-10"}, {"category": "drugs", "location_type": "Force", "location": {"latitude": "54.066660", "street": {"id": 1798193, "name": "On or near Claremont Crescent"}, "longitude": "-2.877941"}, "context": "", "outcome_status": {"category": "Under investigation", "date": "2022-10"}, "persistent_id": "7085fdd4b982b6d17ec76e7e740db6f60523d9c84304c55a212347a0d0471d93", "id": 105338913, "location_subtype": "", "month": "2022-10"}, {"category": "drugs", "location_type": "Force", "location": {"latitude": "54.063224", "street": {"id": 1798092, "name": "On or near Westminster Road"}, "longitude": "-2.880726"}, "context": "", "outcome_status": {"category": "Under investigation", "date": "2022-10"}, "persistent_id": "7778eb4c10190083132775fbd7ae28d18d4663b74103d95efe524126b9577750", "id": 105341432, "location_subtype": "", "month": "2022-10"}, {"category": "drugs", "location_type": "Force", "location": {"latitude": "54.060642", "street": {"id": 1797730, "name": "On or near Norton Avenue"}, "longitude": "-2.888341"}, "context": "", "outcome_status": {"category": "Under investigation", "date": "2022-10"}, "persistent_id": "ecd6663416baa562e107095ad5c09a327de1e687754f1731a55c95f40cc4effa", "id": 105341433, "location_subtype": "", "month": "2022-10"}, {"category": "drugs", "location_type": "Force", "location": {"latitude": "54.066051", "street": {"id": 1798216, "name": "On or near Clarendon Road East"}, "longitude": "-2.877608"}, "context": "", "outcome_status": {"category": "Under investigation", "date": "2022-10"}, "persistent_id": "92d153387ca28b022cf967701a7d48bb1f97628735fd6cb61e2a07fe17d23979", "id": 105335030, "location_subtype": "", "month": "2022-10"}, {"category": "drugs", "location_type": "Force", "location": {"latitude": "54.063224", "street": {"id": 1798092, "name": "On or near Westminster Road"}, "longitude": "-2.880726"}, "context": "", "outcome_status": {"category": "Under investigation", "date": "2022-10"}, "persistent_id": "55053d1ff3941d54bcd76c0435dff9f35c1da86932c229c954ac0ea285fc0bb7", "id": 105328641, "location_subtype": "", "month": "2022-10"}, {"category": "drugs", "location_type": "Force", "location": {"latitude": "54.063538", "street": {"id": 1797933, "name": "On or near Marlborough Road"}, "longitude": "-2.884415"}, "context": "", "outcome_status": {"category": "Under investigation", "date": "2022-10"}, "persistent_id": "e170e091862e8d2b8b0cf5757ef8b126eaefadb8bd3ca7a0977ea015d1dc79bf", "id": 105342382, "location_subtype": "", "month": "2022-10"}, {"category": "drugs", "location_type": "Force", "location": {"latitude": "54.063224", "street": {"id": 1798092, "name": "On or near Westminster Road"}, "longitude": "-2.880726"}, "context": "", "outcome_status": {"category": "Under investigation", "date": "2022-10"}, "persistent_id": "90a017d4d5f043893c602313215e2cc4cb2198d6e52ea7ed8735c415000d6284", "id": 105342357, "location_subtype": "", "month": "2022-10"}, {"category": "drugs", "location_type": "Force", "location": {"latitude": "54.064192", "street": {"id": 1797978, "name": "On or near Marlborough Road"}, "longitude": "-2.883481"}, "context": "", "outcome_status": {"category": "Under investigation", "date": "2022-10"}, "persistent_id": "a202a2f5ddb6e61c3451bcece646d4bdb7f454a1784ed5507edaea20e727d505", "id": 105342359, "location_subtype": "", "month": "2022-10"}, {"category": "other-theft", "location_type": "Force", "location": {"latitude": "54.068111", "street": {"id": 1798385, "name": "On or near West End Road"}, "longitude": "-2.871187"}, "context": "", "outcome_status": {"category": "Under investigation", "date": "2022-10"}, "persistent_id": "00cda17ebd9fc012e393cc47df61eacdf71286b7eef902fcb9800d4c29f5e346", "id": 105343228, "location_subtype": "", "month": "2022-10"}, {"category": "other-theft", "location_type": "Force", "location": {"latitude": "54.056301", "street": {"id": 1797796, "name": "On or near Norton Drive"}, "longitude": "-2.887072"}, "context": "", "outcome_status": {"category": "Under investigation", "date": "2022-10"}, "persistent_id": "47c978c837d21b2df8897771dd90721c444f039adb6762a42c8f1b54b7a65d00", "id": 105329389, "location_subtype": "", "month": "2022-10"}, {"category": "other-theft", "location_type": "Force", "location": {"latitude": "54.067589", "street": {"id": 1798221, "name": "On or near Cedar Street"}, "longitude": "-2.874981"}, "context": "", "outcome_status": {"category": "Under investigation", "date": "2022-10"}, "persistent_id": "98f0c474b37bf46f5bded9a3198797e671bb55a8c6dc351c46c8a5e6fad49dfc", "id": 105342976, "location_subtype": "", "month": "2022-10"}, {"category": "other-theft", "location_type": "Force", "location": {"latitude": "54.067457", "street": {"id": 1798222, "name": "On or near Grove Street"}, "longitude": "-2.875865"}, "context": "", "outcome_status": {"category": "Under investigation", "date": "2022-10"}, "persistent_id": "d5a7d6ca15bdb80e16acfac4a4bc46fe2a2d438b7f98749d04c5bfdf4d0dc65d", "id": 105342768, "location_subtype": "", "month": "2022-10"}, {"category": "other-theft", "location_type": "Force", "location": {"latitude": "54.062411", "street": {"id": 1798081, "name": "On or near Back Avondale Road (west)"}, "longitude": "-2.881228"}, "context": "", "outcome_status": {"category": "Investigation complete; no suspect identified", "date": "2022-10"}, "persistent_id": "1c0761ddb469d35907cf032c641e6c258af412dbd2a1e3f53eea9015a5b047a1", "id": 105328934, "location_subtype": "", "month": "2022-10"}, {"category": "other-theft", "location_type": "Force", "location": {"latitude": "54.061654", "street": {"id": 1798247, "name": "On or near Brook Road"}, "longitude": "-2.876613"}, "context": "", "outcome_status": {"category": "Under investigation", "date": "2022-10"}, "persistent_id": "d1c86018af819ead7a871da8ba063210344e9b4a9ce1b2c61ef79beeab573a3a", "id": 105329015, "location_subtype": "", "month": "2022-10"}, {"category": "other-theft", "location_type": "Force", "location": {"latitude": "54.063224", "street": {"id": 1798092, "name": "On or near Westminster Road"}, "longitude": "-2.880726"}, "context": "", "outcome_status": {"category": "Under investigation", "date": "2022-10"}, "persistent_id": "b86d034aaf4921846ced57bf76a323beec33662239645e2f94d913ad593371d8", "id": 105343163, "location_subtype": "", "month": "2022-10"}, {"category": "other-theft", "location_type": "Force", "location": {"latitude": "54.060058", "street": {"id": 1798517, "name": "On or near Westgate"}, "longitude": "-2.863670"}, "context": "", "outcome_status": {"category": "Unable to prosecute suspect", "date": "2022-10"}, "persistent_id": "450c8cdb3b17d454448a0401b894b5793e2287321e17ddcbce6c109ef5b70b24", "id": 105329786, "location_subtype": "", "month": "2022-10"}, {"category": "other-theft", "location_type": "Force", "location": {"latitude": "54.062085", "street": {"id": 1798132, "name": "On or near Clevelands Walk"}, "longitude": "-2.879082"}, "context": "", "outcome_status": {"category": "Further investigation is not in the public interest", "date": "2022-10"}, "persistent_id": "6c0c9993075885c9b52b60775938fcbd72e2c4fd96071ed421574694a6a6c493", "id": 105329862, "location_subtype": "", "month": "2022-10"}, {"category": "possession-of-weapons", "location_type": "Force", "location": {"latitude": "54.062019", "street": {"id": 1798449, "name": "On or near Fairbank Grove"}, "longitude": "-2.869639"}, "context": "", "outcome_status": {"category": "Under investigation", "date": "2022-10"}, "persistent_id": "45c9b85a29594de7511184164d75a5683f6b54287eb3bcf1f0da71b5e87d491e", "id": 105332193, "location_subtype": "", "month": "2022-10"}, {"category": "possession-of-weapons", "location_type": "Force", "location": {"latitude": "54.063224", "street": {"id": 1798092, "name": "On or near Westminster Road"}, "longitude": "-2.880726"}, "context": "", "outcome_status": {"category": "Under investigation", "date": "2022-10"}, "persistent_id": "fc0ec2ce728bb88ce2c3414485d1d7b8caa419b79011a8f89b0b894834310727", "id": 105326806, "location_subtype": "", "month": "2022-10"}, {"category": "public-order", "location_type": "Force", "location": {"latitude": "54.063224", "street": {"id": 1798092, "name": "On or near Westminster Road"}, "longitude": "-2.880726"}, "context": "", "outcome_status": {"category": "Under investigation", "date": "2022-10"}, "persistent_id": "4e2736dc4553f5da319ee60e072b91b63c5917dff9c80880c51dd5f2d3f5d98b", "id": 105338981, "location_subtype": "", "month": "2022-10"}, {"category": "public-order", "location_type": "Force", "location": {"latitude": "54.061962", "street": {"id": 1798369, "name": "On or near Bellamy Avenue"}, "longitude": "-2.871272"}, "context": "", "outcome_status": {"category": "Under investigation", "date": "2022-10"}, "persistent_id": "cb7e76924a6a76e44e3861796d5dc524c27f5f411c0e7873be4c590f4f0f515a", "id": 105327680, "location_subtype": "", "month": "2022-10"}, {"category": "public-order", "location_type": "Force", "location": {"latitude": "54.063224", "street": {"id": 1798092, "name": "On or near Westminster Road"}, "longitude": "-2.880726"}, "context": "", "outcome_status": {"category": "Under investigation", "date": "2022-10"}, "persistent_id": "73a4031016f3b8ecbce3b2663f1efbb51e67d6a7b23ca42034c9934b83ddc8de", "id": 105341605, "location_subtype": "", "month": "2022-10"}, {"category": "public-order", "location_type": "Force", "location": {"latitude": "54.064305", "street": {"id": 1798108, "name": "On or near Clarendon Road West"}, "longitude": "-2.880306"}, "context": "", "outcome_status": {"category": "Under investigation", "date": "2022-10"}, "persistent_id": "b6abde3730f4e36ab797cd4874a7d12cdae4a0f06f6f1328e32e4c0f7ba9b3b0", "id": 105339267, "location_subtype": "", "month": "2022-10"}, {"category": "public-order", "location_type": "Force", "location": {"latitude": "54.061304", "street": {"id": 1798621, "name": "On or near Aldingham Court"}, "longitude": "-2.862917"}, "context": "", "outcome_status": {"category": "Under investigation", "date": "2022-10"}, "persistent_id": "eabde0e1b618ae74b4b87dce01d438edb114fecd069ed3d264f9f54c85c3c84a", "id": 105339277, "location_subtype": "", "month": "2022-10"}, {"category": "public-order", "location_type": "Force", "location": {"latitude": "54.064642", "street": {"id": 1798191, "name": "On or near Westminster Road"}, "longitude": "-2.878510"}, "context": "", "outcome_status": {"category": "Under investigation", "date": "2022-10"}, "persistent_id": "8cea7c414235ae1bd74c870cc0b5e092cfec6d32bf426f25127680cb37029f36", "id": 105339283, "location_subtype": "", "month": "2022-10"}, {"category": "public-order", "location_type": "Force", "location": {"latitude": "54.064008", "street": {"id": 1798241, "name": "On or near Regent Road"}, "longitude": "-2.876678"}, "context": "", "outcome_status": {"category": "Under investigation", "date": "2022-10"}, "persistent_id": "ee5fee84ce9067b0551e5b02599ebd3ad86dfc25cce2f28932fe8421e92a2424", "id": 105339378, "location_subtype": "", "month": "2022-10"}, {"category": "public-order", "location_type": "Force", "location": {"latitude": "54.060989", "street": {"id": 1798454, "name": "On or near Globe Drive"}, "longitude": "-2.869205"}, "context": "", "outcome_status": {"category": "Under investigation", "date": "2022-10"}, "persistent_id": "dea590090c2187b9304296c25e750120e23b35ec13b2826fc897c56912f72b68", "id": 105343693, "location_subtype": "", "month": "2022-10"}, {"category": "public-order", "location_type": "Force", "location": {"latitude": "54.059176", "street": {"id": 1797567, "name": "On or near Rydal Road"}, "longitude": "-2.890983"}, "context": "", "outcome_status": {"category": "Under investigation", "date": "2022-10"}, "persistent_id": "ef5fedb9bcb0c39f8edc1a190d5cd4ea1231221581d49c01d95c473f79eeca4b", "id": 105341554, "location_subtype": "", "month": "2022-10"}, {"category": "public-order", "location_type": "Force", "location": {"latitude": "54.072415", "street": {"id": 1798561, "name": "On or near Tunstall Street"}, "longitude": "-2.865073"}, "context": "", "outcome_status": {"category": "Investigation complete; no suspect identified", "date": "2022-10"}, "persistent_id": "aa43c835a919a726dce55d7edd17786f0b9131a900c0b93a2fe1314d3f9d5e0b", "id": 105341596, "location_subtype": "", "month": "2022-10"}, {"category": "public-order", "location_type": "Force", "location": {"latitude": "54.063228", "street": {"id": 1797953, "name": "On or near Brunswick Road"}, "longitude": "-2.883797"}, "context": "", "outcome_status": {"category": "Under investigation", "date": "2022-10"}, "persistent_id": "630be8d3940c04ed2377b0e476582118b756437e2d4c3cdf1ac68f835297e4dc", "id": 105339540, "location_subtype": "", "month": "2022-10"}, {"category": "public-order", "location_type": "Force", "location": {"latitude": "54.060203", "street": {"id": 1798048, "name": "On or near King's Crescent"}, "longitude": "-2.882006"}, "context": "", "outcome_status": {"category": "Under investigation", "date": "2022-10"}, "persistent_id": "30c6ae40ad91664384373244ca4d96322c086598b1dda0965fdf3fd342b60312", "id": 105334847, "location_subtype": "", "month": "2022-10"}, {"category": "public-order", "location_type": "Force", "location": {"latitude": "54.063500", "street": {"id": 1798483, "name": "On or near Woodhill Avenue"}, "longitude": "-2.868692"}, "context": "", "outcome_status": {"category": "Under investigation", "date": "2022-10"}, "persistent_id": "7081b97168465e957e468737b507057636a289058b6718c678bca7296f51a281", "id": 105341654, "location_subtype": "", "month": "2022-10"}, {"category": "robbery", "location_type": "Force", "location": {"latitude": "54.067923", "street": {"id": 1798150, "name": "On or near Highfield Crescent"}, "longitude": "-2.877265"}, "context": "", "outcome_status": {"category": "Investigation complete; no suspect identified", "date": "2022-10"}, "persistent_id": "b937d066a65ec34fa8bf897853bb91783a9cfcf6b6d700a7d1f987ffbb053a84", "id": 105328434, "location_subtype": "", "month": "2022-10"}, {"category": "shoplifting", "location_type": "Force", "location": {"latitude": "54.064946", "street": {"id": 1798173, "name": "On or near "}, "longitude": "-2.878807"}, "context": "", "outcome_status": {"category": "Under investigation", "date": "2022-10"}, "persistent_id": "e746ac45a5dad3a8c1d22d934bab3d1b617ef39edd310593c69776c3f10f4d2c", "id": 105333336, "location_subtype": "", "month": "2022-10"}, {"category": "shoplifting", "location_type": "Force", "location": {"latitude": "54.064946", "street": {"id": 1798173, "name": "On or near "}, "longitude": "-2.878807"}, "context": "", "outcome_status": {"category": "Unable to prosecute suspect", "date": "2022-10"}, "persistent_id": "ace1917e2f210989193d3da3c0cae9dc7bc57380102ffe734246ad99c19dae4d", "id": 105333258, "location_subtype": "", "month": "2022-10"}, {"category": "shoplifting", "location_type": "Force", "location": {"latitude": "54.064946", "street": {"id": 1798173, "name": "On or near "}, "longitude": "-2.878807"}, "context": "", "outcome_status": {"category": "Under investigation", "date": "2022-10"}, "persistent_id": "8250af559c086f3f81b866750f08dde8436689931b309151f107305e0659b58a", "id": 105331357, "location_subtype": "", "month": "2022-10"}, {"category": "shoplifting", "location_type": "Force", "location": {"latitude": "54.067923", "street": {"id": 1798150, "name": "On or near Highfield Crescent"}, "longitude": "-2.877265"}, "context": "", "outcome_status": {"category": "Under investigation", "date": "2022-10"}, "persistent_id": "e1854f96ab53431dbfc69bfe35175709bc5017c003d968f0f33d893b9806908e", "id": 105331695, "location_subtype": "", "month": "2022-10"}, {"category": "shoplifting", "location_type": "Force", "location": {"latitude": "54.067923", "street": {"id": 1798150, "name": "On or near Highfield Crescent"}, "longitude": "-2.877265"}, "context": "", "outcome_status": {"category": "Investigation complete; no suspect identified", "date": "2022-10"}, "persistent_id": "c727d29b18fb2b735933a435570a9e74b470d2ff7a27f6b130f418329f9d3017", "id": 105330930, "location_subtype": "", "month": "2022-10"}, {"category": "shoplifting", "location_type": "Force", "location": {"latitude": "54.067923", "street": {"id": 1798150, "name": "On or near Highfield Crescent"}, "longitude": "-2.877265"}, "context": "", "outcome_status": {"category": "Under investigation", "date": "2022-10"}, "persistent_id": "007a51189df1c9019a2971bbf5ce353649b0ea7911c2181630f5143c6ea66e8c", "id": 105330777, "location_subtype": "", "month": "2022-10"}, {"category": "shoplifting", "location_type": "Force", "location": {"latitude": "54.061394", "street": {"id": 1797643, "name": "On or near Craig Street"}, "longitude": "-2.889961"}, "context": "", "outcome_status": {"category": "Under investigation", "date": "2022-10"}, "persistent_id": "f1823fe18e42a605552e089767e9c6089f722e82b452ad637195849c05fbb970", "id": 105332974, "location_subtype": "", "month": "2022-10"}, {"category": "shoplifting", "location_type": "Force", "location": {"latitude": "54.067923", "street": {"id": 1798150, "name": "On or near Highfield Crescent"}, "longitude": "-2.877265"}, "context": "", "outcome_status": {"category": "Under investigation", "date": "2022-10"}, "persistent_id": "51484b8e7bdae00d4384acf6af22ee50ac050d6864a88371a21639694d02a8ae", "id": 105332632, "location_subtype": "", "month": "2022-10"}, {"category": "shoplifting", "location_type": "Force", "location": {"latitude": "54.063439", "street": {"id": 1797847, "name": "On or near Cavendish Road"}, "longitude": "-2.885666"}, "context": "", "outcome_status": {"category": "Under investigation", "date": "2022-10"}, "persistent_id": "65ae2c70beab82c8654e173b1a76a7aa24720cc68954186649cad5d1a75e80cb", "id": 105332585, "location_subtype": "", "month": "2022-10"}, {"category": "shoplifting", "location_type": "Force", "location": {"latitude": "54.067923", "street": {"id": 1798150, "name": "On or near Highfield Crescent"}, "longitude": "-2.877265"}, "context": "", "outcome_status": {"category": "Under investigation", "date": "2022-10"}, "persistent_id": "af6064b42a978400770f90a5e8bfc2556e4d2bc62db802bad50b598262fe78bc", "id": 105332546, "location_subtype": "", "month": "2022-10"}, {"category": "shoplifting", "location_type": "Force", "location": {"latitude": "54.063370", "street": {"id": 1798053, "name": "On or near Grafton Road"}, "longitude": "-2.881569"}, "context": "", "outcome_status": {"category": "Under investigation", "date": "2022-10"}, "persistent_id": "b73a703d43c781d7fb6c3f69a606fdf227bfa06502243da6eb034e25c848cc1c", "id": 105334635, "location_subtype": "", "month": "2022-10"}, {"category": "shoplifting", "location_type": "Force", "location": {"latitude": "54.054653", "street": {"id": 1797785, "name": "On or near "}, "longitude": "-2.887495"}, "context": "", "outcome_status": {"category": "Under investigation", "date": "2022-10"}, "persistent_id": "67d149d1284d6c88975bae0162e4f30c1492e809aa5fa0f5024835b598721958", "id": 105334180, "location_subtype": "", "month": "2022-10"}, {"category": "shoplifting", "location_type": "Force", "location": {"latitude": "54.067923", "street": {"id": 1798150, "name": "On or near Highfield Crescent"}, "longitude": "-2.877265"}, "context": "", "outcome_status": {"category": "Under investigation", "date": "2022-10"}, "persistent_id": "a6e88ad533bcd33a7c30c71f5caad674b8ee2b2722e10b1aa2adb14740124c8a", "id": 105334148, "location_subtype": "", "month": "2022-10"}, {"category": "shoplifting", "location_type": "Force", "location": {"latitude": "54.067923", "street": {"id": 1798150, "name": "On or near Highfield Crescent"}, "longitude": "-2.877265"}, "context": "", "outcome_status": {"category": "Under investigation", "date": "2022-10"}, "persistent_id": "0fa8d56c857a79235e7e3ec51a30154d28622279a53d706076a0e76a322c557e", "id": 105334492, "location_subtype": "", "month": "2022-10"}, {"category": "shoplifting", "location_type": "Force", "location": {"latitude": "54.067923", "street": {"id": 1798150, "name": "On or near Highfield Crescent"}, "longitude": "-2.877265"}, "context": "", "outcome_status": {"category": "Under investigation", "date": "2022-10"}, "persistent_id": "aafde7388d8ba92474b9a6f3fc18f966839f59814a033d4c1086a21c6206e709", "id": 105333239, "location_subtype": "", "month": "2022-10"}, {"category": "shoplifting", "location_type": "Force", "location": {"latitude": "54.063439", "street": {"id": 1797847, "name": "On or near Cavendish Road"}, "longitude": "-2.885666"}, "context": "", "outcome_status": {"category": "Investigation complete; no suspect identified", "date": "2022-10"}, "persistent_id": "b116fa2b2364b500538e8a67f72aff29986fad53b2259a7b3554e0feba788d57", "id": 105333201, "location_subtype": "", "month": "2022-10"}, {"category": "shoplifting", "location_type": "Force", "location": {"latitude": "54.067589", "street": {"id": 1798221, "name": "On or near Cedar Street"}, "longitude": "-2.874981"}, "context": "", "outcome_status": {"category": "Offender given penalty notice", "date": "2022-10"}, "persistent_id": "654a590feddffb3f4e9bcc9566dde18a44e3df557347222a7cb67e75b44259ba", "id": 105330694, "location_subtype": "", "month": "2022-10"}, {"category": "theft-from-the-person", "location_type": "Force", "location": {"latitude": "54.063157", "street": {"id": 1797887, "name": "On or near Marlborough Road"}, "longitude": "-2.884957"}, "context": "", "outcome_status": {"category": "Under investigation", "date": "2022-10"}, "persistent_id": "57653506016a2e74684c92908e1d90b1e0869f583c3276fe47458581fac2dca2", "id": 105328722, "location_subtype": "", "month": "2022-10"}, {"category": "theft-from-the-person", "location_type": "Force", "location": {"latitude": "54.062720", "street": {"id": 1798115, "name": "On or near Back Avondale Road (east)"}, "longitude": "-2.880761"}, "context": "", "outcome_status": {"category": "Under investigation", "date": "2022-10"}, "persistent_id": "e45d3497126947c6f62dbee6c30a57060193e54a404d404ac0a997859e157de4", "id": 105329017, "location_subtype": "", "month": "2022-10"}, {"category": "vehicle-crime", "location_type": "Force", "location": {"latitude": "54.072068", "street": {"id": 1798509, "name": "On or near Derby Street"}, "longitude": "-2.867052"}, "context": "", "outcome_status": {"category": "Investigation complete; no suspect identified", "date": "2022-10"}, "persistent_id": "861cf7737a8e03033c1491d4f1579b5ae68a46143b59ef89bbc42350bcb5145d", "id": 105340264, "location_subtype": "", "month": "2022-10"}, {"category": "vehicle-crime", "location_type": "Force", "location": {"latitude": "54.060642", "street": {"id": 1797730, "name": "On or near Norton Avenue"}, "longitude": "-2.888341"}, "context": "", "outcome_status": {"category": "Under investigation", "date": "2022-10"}, "persistent_id": "ced990689dca5e4403b8fb2e0a898037c25f02cace3cc0b45b227e5de7d4365d", "id": 105329139, "location_subtype": "", "month": "2022-10"}, {"category": "violent-crime", "location_type": "Force", "location": {"latitude": "54.063370", "street": {"id": 1798053, "name": "On or near Grafton Road"}, "longitude": "-2.881569"}, "context": "", "outcome_status": {"category": "Under investigation", "date": "2022-10"}, "persistent_id": "165d7d628aa44c58fc2b89cb06ea471494a4772492a22b96805b4c878e97ce5b", "id": 105338909, "location_subtype": "", "month": "2022-10"}, {"category": "violent-crime", "location_type": "Force", "location": {"latitude": "54.063475", "street": {"id": 1797884, "name": "On or near Cavendish Road"}, "longitude": "-2.885621"}, "context": "", "outcome_status": {"category": "Under investigation", "date": "2022-10"}, "persistent_id": "11fd7cc94dc7c75bafa073745949541e774d0752885ef01c8511d914b7709c27", "id": 105339134, "location_subtype": "", "month": "2022-10"}, {"category": "violent-crime", "location_type": "Force", "location": {"latitude": "54.063439", "street": {"id": 1797847, "name": "On or near Cavendish Road"}, "longitude": "-2.885666"}, "context": "", "outcome_status": {"category": "Under investigation", "date": "2022-10"}, "persistent_id": "317d866593aad22db1a4b621e8d4fad0205cdb2206e341e657b3af06b2de91d6", "id": 105339250, "location_subtype": "", "month": "2022-10"}, {"category": "violent-crime", "location_type": "Force", "location": {"latitude": "54.064192", "street": {"id": 1797978, "name": "On or near Marlborough Road"}, "longitude": "-2.883481"}, "context": "", "outcome_status": {"category": "Under investigation", "date": "2022-10"}, "persistent_id": "53449887e0fabc8f55b54e9e55629f466533d7f2512d394d0af7eb064309ad1e", "id": 105339271, "location_subtype": "", "month": "2022-10"}, {"category": "violent-crime", "location_type": "Force", "location": {"latitude": "54.064008", "street": {"id": 1798241, "name": "On or near Regent Road"}, "longitude": "-2.876678"}, "context": "", "outcome_status": {"category": "Under investigation", "date": "2022-10"}, "persistent_id": "b5b5f0d99aec0ce94f45ad016276b49f931b8b954df7379e1ffa97c463c83dc3", "id": 105339281, "location_subtype": "", "month": "2022-10"}, {"category": "violent-crime", "location_type": "Force", "location": {"latitude": "54.072415", "street": {"id": 1798561, "name": "On or near Tunstall Street"}, "longitude": "-2.865073"}, "context": "", "outcome_status": {"category": "Under investigation", "date": "2022-10"}, "persistent_id": "9fed37884b1f72b1147ea775a6ffa3bf780efea5fbcecb1724161ff52c7c5902", "id": 105339287, "location_subtype": "", "month": "2022-10"}, {"category": "violent-crime", "location_type": "Force", "location": {"latitude": "54.059967", "street": {"id": 1798098, "name": "On or near Myrtle Grove"}, "longitude": "-2.879939"}, "context": "", "outcome_status": {"category": "Investigation complete; no suspect identified", "date": "2022-10"}, "persistent_id": "0e081a8680a43c8415130e1fb2b460cd53f0a14f5d8264ecf614bec29fc18a6a", "id": 105339351, "location_subtype": "", "month": "2022-10"}, {"category": "violent-crime", "location_type": "Force", "location": {"latitude": "54.067122", "street": {"id": 1798447, "name": "On or near Highgrove Close"}, "longitude": "-2.868768"}, "context": "", "outcome_status": {"category": "Under investigation", "date": "2022-10"}, "persistent_id": "9dd9e52f5c9d372ca719cd4cf34f2e7ddafc650a1b661ddf7329ae620bcf0f8c", "id": 105327913, "location_subtype": "", "month": "2022-10"}, {"category": "violent-crime", "location_type": "Force", "location": {"latitude": "54.069431", "street": {"id": 1798398, "name": "On or near Baycliffe Crescent"}, "longitude": "-2.870084"}, "context": "", "outcome_status": {"category": "Under investigation", "date": "2022-10"}, "persistent_id": "ae755709913bd6557c6b2e4509fdcc3fd24c9174ef72493b0f9f72bc056ed370", "id": 105327933, "location_subtype": "", "month": "2022-10"}, {"category": "violent-crime", "location_type": "Force", "location": {"latitude": "54.058214", "street": {"id": 1798005, "name": "On or near Lordsome Road"}, "longitude": "-2.882423"}, "context": "", "outcome_status": {"category": "Under investigation", "date": "2022-10"}, "persistent_id": "75936292d56b4453ab143643932b43b48de5a08f9ede28a8d63405caa69ec0b1", "id": 105343508, "location_subtype": "", "month": "2022-10"}, {"category": "violent-crime", "location_type": "Force", "location": {"latitude": "54.066971", "street": {"id": 1798609, "name": "On or near Hydeaway Court"}, "longitude": "-2.863432"}, "context": "", "outcome_status": {"category": "Under investigation", "date": "2022-10"}, "persistent_id": "40e8d54d36f3727152f250e276f2594bef57d9564b75748ee0afd4b5c2c13e63", "id": 105326255, "location_subtype": "", "month": "2022-10"}, {"category": "violent-crime", "location_type": "Force", "location": {"latitude": "54.067122", "street": {"id": 1798447, "name": "On or near Highgrove Close"}, "longitude": "-2.868768"}, "context": "", "outcome_status": {"category": "Under investigation", "date": "2022-10"}, "persistent_id": "d1e5c0d5e772eedc3aa847902cb10b3170ab6fa2faf949e0773f8bf2bf19d63f", "id": 105327627, "location_subtype": "", "month": "2022-10"}, {"category": "violent-crime", "location_type": "Force", "location": {"latitude": "54.067122", "street": {"id": 1798447, "name": "On or near Highgrove Close"}, "longitude": "-2.868768"}, "context": "", "outcome_status": {"category": "Under investigation", "date": "2022-10"}, "persistent_id": "4c8eef47e883241fbf9b0b41e1cf462b0a4ad3f42c54bc9909016b00e7fc1eb5", "id": 105327812, "location_subtype": "", "month": "2022-10"}, {"category": "violent-crime", "location_type": "Force", "location": {"latitude": "54.067457", "street": {"id": 1798222, "name": "On or near Grove Street"}, "longitude": "-2.875865"}, "context": "", "outcome_status": {"category": "Under investigation", "date": "2022-10"}, "persistent_id": "b3b7c8d1d7d2964d2a3b26251c8078396b5eed190cde5a3b4bd5a0f9eee9b81a", "id": 105338545, "location_subtype": "", "month": "2022-10"}, {"category": "violent-crime", "location_type": "Force", "location": {"latitude": "54.063475", "street": {"id": 1797884, "name": "On or near Cavendish Road"}, "longitude": "-2.885621"}, "context": "", "outcome_status": {"category": "Under investigation", "date": "2022-10"}, "persistent_id": "fc5d5e6084079bc39179c776f15da216b2cea833893d92b0a09058eeecb8c3cf", "id": 105338739, "location_subtype": "", "month": "2022-10"}, {"category": "violent-crime", "location_type": "Force", "location": {"latitude": "54.059712", "street": {"id": 1797704, "name": "On or near Dalton Road"}, "longitude": "-2.888993"}, "context": "", "outcome_status": {"category": "Under investigation", "date": "2022-10"}, "persistent_id": "cb0f79c1890f14f011d12d209f95d980462b9fcbfb0c1ecbd68c4508c782a9e0", "id": 105338778, "location_subtype": "", "month": "2022-10"}, {"category": "violent-crime", "location_type": "Force", "location": {"latitude": "54.067457", "street": {"id": 1798222, "name": "On or near Grove Street"}, "longitude": "-2.875865"}, "context": "", "outcome_status": {"category": "Under investigation", "date": "2022-10"}, "persistent_id": "a13ca8aa96cf6e9369ca86ec9b21938f0cc648d0b7bcc32d2bc7f2a9b6d7abd3", "id": 105327328, "location_subtype": "", "month": "2022-10"}, {"category": "violent-crime", "location_type": "Force", "location": {"latitude": "54.064192", "street": {"id": 1797978, "name": "On or near Marlborough Road"}, "longitude": "-2.883481"}, "context": "", "outcome_status": {"category": "Under investigation", "date": "2022-10"}, "persistent_id": "1b007b67af711b6a890ea6e82a8b5e613fde5e128f2790cb79f4352d03b112bf", "id": 105338084, "location_subtype": "", "month": "2022-10"}, {"category": "violent-crime", "location_type": "Force", "location": {"latitude": "54.058470", "street": {"id": 1797678, "name": "On or near Norton Road"}, "longitude": "-2.889150"}, "context": "", "outcome_status": {"category": "Under investigation", "date": "2022-10"}, "persistent_id": "4ccc6b88ac4a7b339d5a36f484feb2e28112b6e7da59652e4c3fe9c27d6d55c9", "id": 105338092, "location_subtype": "", "month": "2022-10"}, {"category": "violent-crime", "location_type": "Force", "location": {"latitude": "54.049461", "street": {"id": 1797907, "name": "On or near Roeburndale Crescent"}, "longitude": "-2.884666"}, "context": "", "outcome_status": {"category": "Under investigation", "date": "2022-10"}, "persistent_id": "8acb5b2972eeaed245f0bf9e5232555230d4837c1ef7f65894fb3070d26c230a", "id": 105338131, "location_subtype": "", "month": "2022-10"}, {"category": "violent-crime", "location_type": "Force", "location": {"latitude": "54.064192", "street": {"id": 1797978, "name": "On or near Marlborough Road"}, "longitude": "-2.883481"}, "context": "", "outcome_status": {"category": "Under investigation", "date": "2022-10"}, "persistent_id": "7604057e148a7a4f6ea0b419f00a77dd17b64a3d3f6e1b7bbcb1d29938408a2c", "id": 105338596, "location_subtype": "", "month": "2022-10"}, {"category": "violent-crime", "location_type": "Force", "location": {"latitude": "54.062804", "street": {"id": 1798252, "name": "On or near Devonshire Road"}, "longitude": "-2.876699"}, "context": "", "outcome_status": {"category": "Under investigation", "date": "2022-10"}, "persistent_id": "6aade7d947f0ecace0d821c4ac1a5a9d2dbf446c83bebee0b2a93f8bb3d2c0dc", "id": 105329599, "location_subtype": "", "month": "2022-10"}, {"category": "violent-crime", "location_type": "Force", "location": {"latitude": "54.061394", "street": {"id": 1797643, "name": "On or near Craig Street"}, "longitude": "-2.889961"}, "context": "", "outcome_status": {"category": "Unable to prosecute suspect", "date": "2022-10"}, "persistent_id": "6ff30e810b5793e3564ce36d10ec7222a40f4805afaf3d91f8bb1d41c5edb3ea", "id": 105329817, "location_subtype": "", "month": "2022-10"}, {"category": "violent-crime", "location_type": "Force", "location": {"latitude": "54.061799", "street": {"id": 1797741, "name": "On or near Snowden Avenue"}, "longitude": "-2.888686"}, "context": "", "outcome_status": {"category": "Under investigation", "date": "2022-10"}, "persistent_id": "bf5896102ea6caccaeba9592bf8659d81d9eca0e08a6cc7d517669e2bddc1992", "id": 105331185, "location_subtype": "", "month": "2022-10"}, {"category": "violent-crime", "location_type": "Force", "location": {"latitude": "54.062085", "street": {"id": 1798132, "name": "On or near Clevelands Walk"}, "longitude": "-2.879082"}, "context": "", "outcome_status": {"category": "Unable to prosecute suspect", "date": "2022-10"}, "persistent_id": "5d350eb4cd3e5cf86f236a7a54f3976c4d9ee0991941089f790db348bb698313", "id": 105331273, "location_subtype": "", "month": "2022-10"}, {"category": "violent-crime", "location_type": "Force", "location": {"latitude": "54.063475", "street": {"id": 1797884, "name": "On or near Cavendish Road"}, "longitude": "-2.885621"}, "context": "", "outcome_status": {"category": "Under investigation", "date": "2022-10"}, "persistent_id": "a54c0452a7f1d77f59f17fa58ab1b96d5abf0e292f15d57d7af3cbb62687ad70", "id": 105331551, "location_subtype": "", "month": "2022-10"}, {"category": "violent-crime", "location_type": "Force", "location": {"latitude": "54.067457", "street": {"id": 1798222, "name": "On or near Grove Street"}, "longitude": "-2.875865"}, "context": "", "outcome_status": {"category": "Under investigation", "date": "2022-10"}, "persistent_id": "0d0a190795310cd9d8c648dc093ebb62fdee5d3ff287bc810af6438ad9ec1412", "id": 105332831, "location_subtype": "", "month": "2022-10"}, {"category": "violent-crime", "location_type": "Force", "location": {"latitude": "54.059304", "street": {"id": 1798101, "name": "On or near Manor Grove"}, "longitude": "-2.879619"}, "context": "", "outcome_status": {"category": "Investigation complete; no suspect identified", "date": "2022-10"}, "persistent_id": "af74295f4e9e5d01dc1d63df291a9bcabcebe38de91cd6ad713d587d22ca0a50", "id": 105339511, "location_subtype": "", "month": "2022-10"}, {"category": "violent-crime", "location_type": "Force", "location": {"latitude": "54.066604", "street": {"id": 1798141, "name": "On or near Springfield Street"}, "longitude": "-2.879346"}, "context": "", "outcome_status": {"category": "Further investigation is not in the public interest", "date": "2022-10"}, "persistent_id": "3eebf92cdb5140feecf83fabd0767aa1a47e318cb59fe69c0385477620b6c459", "id": 105339373, "location_subtype": "", "month": "2022-10"}, {"category": "violent-crime", "location_type": "Force", "location": {"latitude": "54.064192", "street": {"id": 1797978, "name": "On or near Marlborough Road"}, "longitude": "-2.883481"}, "context": "", "outcome_status": {"category": "Awaiting court outcome", "date": "2022-10"}, "persistent_id": "01a15f049576b5e11680435a266ab50a07e33570c9f6120f488eb775218cc124", "id": 105338604, "location_subtype": "", "month": "2022-10"}, {"category": "violent-crime", "location_type": "Force", "location": {"latitude": "54.063081", "street": {"id": 1798277, "name": "On or near Lake Road"}, "longitude": "-2.875650"}, "context": "", "outcome_status": {"category": "Under investigation", "date": "2022-10"}, "persistent_id": "ec81a1ab73045e838659d93386e2cc748b5e04fa6d6fc46aea6818cad1ad23e7", "id": 105339439, "location_subtype": "", "month": "2022-10"}, {"category": "violent-crime", "location_type": "Force", "location": {"latitude": "54.072415", "street": {"id": 1798561, "name": "On or near Tunstall Street"}, "longitude": "-2.865073"}, "context": "", "outcome_status": {"category": "Under investigation", "date": "2022-10"}, "persistent_id": "18d2409ea790876058cd598ce8d4e23d47ff458477d895c4a8d16911f4d1faf6", "id": 105340623, "location_subtype": "", "month": "2022-10"}, {"category": "violent-crime", "location_type": "Force", "location": {"latitude": "54.061366", "street": {"id": 1798699, "name": "On or near Riverview Court"}, "longitude": "-2.859205"}, "context": "", "outcome_status": {"category": "Under investigation", "date": "2022-10"}, "persistent_id": "7f2967c6f693685e8566395cba21ace326e128a08f27bde520775f3cde7c0948", "id": 105341419, "location_subtype": "", "month": "2022-10"}, {"category": "violent-crime", "location_type": "Force", "location": {"latitude": "54.064008", "street": {"id": 1798241, "name": "On or near Regent Road"}, "longitude": "-2.876678"}, "context": "", "outcome_status": {"category": "Under investigation", "date": "2022-10"}, "persistent_id": "6c5b4affaab98fc80443ef925d715dddd05024f2f6b967c73c980437fe49a9ea", "id": 105340800, "location_subtype": "", "month": "2022-10"}, {"category": "violent-crime", "location_type": "Force", "location": {"latitude": "54.063500", "street": {"id": 1798483, "name": "On or near Woodhill Avenue"}, "longitude": "-2.868692"}, "context": "", "outcome_status": {"category": "Under investigation", "date": "2022-10"}, "persistent_id": "0e4ea21464dea4f47b2682b19e532f5a431d5c03da72b0ffefc22c80f2a1d371", "id": 105338187, "location_subtype": "", "month": "2022-10"}, {"category": "violent-crime", "location_type": "Force", "location": {"latitude": "54.066913", "street": {"id": 1798298, "name": "On or near Westminster Avenue"}, "longitude": "-2.873943"}, "context": "", "outcome_status": {"category": "Under investigation", "date": "2022-10"}, "persistent_id": "adeb9a3cbd3979066502cb59251cfc64d0a1113d7527ca775be4e2b8e61c6950", "id": 105336442, "location_subtype": "", "month": "2022-10"}, {"category": "violent-crime", "location_type": "Force", "location": {"latitude": "54.051642", "street": {"id": 1798111, "name": "On or near The Pastures"}, "longitude": "-2.877793"}, "context": "", "outcome_status": {"category": "Under investigation", "date": "2022-10"}, "persistent_id": "4f3dc86782e041719fbcc6ad29436de997bb85bd0116920d01421a2a814862ef", "id": 105336440, "location_subtype": "", "month": "2022-10"}, {"category": "violent-crime", "location_type": "Force", "location": {"latitude": "54.054653", "street": {"id": 1797785, "name": "On or near "}, "longitude": "-2.887495"}, "context": "", "outcome_status": {"category": "Under investigation", "date": "2022-10"}, "persistent_id": "82d80e28ebcd79eaf88ed4b6f25d72ffcc08ffe28c453eebec5a1a8b0a933007", "id": 105337774, "location_subtype": "", "month": "2022-10"}, {"category": "violent-crime", "location_type": "Force", "location": {"latitude": "54.064008", "street": {"id": 1798241, "name": "On or near Regent Road"}, "longitude": "-2.876678"}, "context": "", "outcome_status": {"category": "Under investigation", "date": "2022-10"}, "persistent_id": "65d08c98ef4e5ada9ede582fa29417f3e06203ae656588f0b02140925f5748f1", "id": 105337756, "location_subtype": "", "month": "2022-10"}, {"category": "violent-crime", "location_type": "Force", "location": {"latitude": "54.067923", "street": {"id": 1798150, "name": "On or near Highfield Crescent"}, "longitude": "-2.877265"}, "context": "", "outcome_status": {"category": "Under investigation", "date": "2022-10"}, "persistent_id": "2fb23bb8b6b81f86d8391ab1f692913851b373859270f8e5a099dba8211a0a09", "id": 105337727, "location_subtype": "", "month": "2022-10"}, {"category": "violent-crime", "location_type": "Force", "location": {"latitude": "54.062282", "street": {"id": 1798059, "name": "On or near Westminster Mews"}, "longitude": "-2.881730"}, "context": "", "outcome_status": {"category": "Under investigation", "date": "2022-10"}, "persistent_id": "8d0a52e3624684964d3d28c88028c7da7828bcafa271a0370a3c0d668b1af599", "id": 105337670, "location_subtype": "", "month": "2022-10"}, {"category": "violent-crime", "location_type": "Force", "location": {"latitude": "54.061283", "street": {"id": 1797794, "name": "On or near Granville Road"}, "longitude": "-2.886704"}, "context": "", "outcome_status": {"category": "Under investigation", "date": "2022-10"}, "persistent_id": "cfc0e361ca296b9afd2d5c79bd6f0e9616866b5c8c6e7cf3674032de3babb6fc", "id": 105337618, "location_subtype": "", "month": "2022-10"}, {"category": "violent-crime", "location_type": "Force", "location": {"latitude": "54.064408", "street": {"id": 1797839, "name": "On or near Heysham Road"}, "longitude": "-2.885931"}, "context": "", "outcome_status": {"category": "Under investigation", "date": "2022-10"}, "persistent_id": "95b32001facfd21e989a51c2ff60cad24495214145dd3a5f53714f57a0f29453", "id": 105336385, "location_subtype": "", "month": "2022-10"}, {"category": "violent-crime", "location_type": "Force", "location": {"latitude": "54.063157", "street": {"id": 1797887, "name": "On or near Marlborough Road"}, "longitude": "-2.884957"}, "context": "", "outcome_status": {"category": "Under investigation", "date": "2022-10"}, "persistent_id": "539b32c11fff634103595aa6357c26b5331c6413b5af9f5fa075c60ad1e199ad", "id": 105339494, "location_subtype": "", "month": "2022-10"}, {"category": "violent-crime", "location_type": "Force", "location": {"latitude": "54.064461", "street": {"id": 1798474, "name": "On or near Bertram Avenue"}, "longitude": "-2.868804"}, "context": "", "outcome_status": {"category": "Under investigation", "date": "2022-10"}, "persistent_id": "07bdd4e285d9e940c52affd297aa83409a34b68744ff3ece1c69988f14c2c85b", "id": 105340315, "location_subtype": "", "month": "2022-10"}, {"category": "violent-crime", "location_type": "Force", "location": {"latitude": "54.064979", "street": {"id": 1798085, "name": "On or near "}, "longitude": "-2.880396"}, "context": "", "outcome_status": {"category": "Under investigation", "date": "2022-10"}, "persistent_id": "dee65e613f42b038ee125d3864d8f8b0719de47f5f0d86164c5465b1af3be287", "id": 105335407, "location_subtype": "", "month": "2022-10"}, {"category": "violent-crime", "location_type": "Force", "location": {"latitude": "54.063439", "street": {"id": 1797847, "name": "On or near Cavendish Road"}, "longitude": "-2.885666"}, "context": "", "outcome_status": {"category": "Under investigation", "date": "2022-10"}, "persistent_id": "1e7e9f578eaaa7d2773c368a4efb6292bcd784941724295aaa2e54870ae57478", "id": 105335371, "location_subtype": "", "month": "2022-10"}, {"category": "violent-crime", "location_type": "Force", "location": {"latitude": "54.057129", "street": {"id": 1798232, "name": "On or near Trumley Court"}, "longitude": "-2.868498"}, "context": "", "outcome_status": {"category": "Under investigation", "date": "2022-10"}, "persistent_id": "146df2684aa7323a7fcd8eb0f2e94eefa94eac9f0a7c3de605f186df0b8e27d3", "id": 105339956, "location_subtype": "", "month": "2022-10"}, {"category": "violent-crime", "location_type": "Force", "location": {"latitude": "54.060308", "street": {"id": 1798573, "name": "On or near Halton Court"}, "longitude": "-2.863920"}, "context": "", "outcome_status": {"category": "Under investigation", "date": "2022-10"}, "persistent_id": "dbc71386c64d7581bc99b2bdcc53014921cb222bebbb651f7031f20466529d08", "id": 105335007, "location_subtype": "", "month": "2022-10"}, {"category": "violent-crime", "location_type": "Force", "location": {"latitude": "54.064979", "street": {"id": 1798085, "name": "On or near "}, "longitude": "-2.880396"}, "context": "", "outcome_status": {"category": "Under investigation", "date": "2022-10"}, "persistent_id": "5438f3a75a75904ca9c1aa7c0b0c72f8bdad4c4f761b39b0cd2f90da8fdb786d", "id": 105339968, "location_subtype": "", "month": "2022-10"}, {"category": "violent-crime", "location_type": "Force", "location": {"latitude": "54.071243", "street": {"id": 1798498, "name": "On or near Edward Street"}, "longitude": "-2.868059"}, "context": "", "outcome_status": {"category": "Under investigation", "date": "2022-10"}, "persistent_id": "ae4d43ddf03605998c88d1f20f474430f4c24c9cd6fc789b8a33047288ddbc33", "id": 105340801, "location_subtype": "", "month": "2022-10"}, {"category": "violent-crime", "location_type": "Force", "location": {"latitude": "54.061799", "street": {"id": 1797741, "name": "On or near Snowden Avenue"}, "longitude": "-2.888686"}, "context": "", "outcome_status": {"category": "Unable to prosecute suspect", "date": "2022-10"}, "persistent_id": "e46dc75e660f97e343006a0ff87afbe7f3c5a639e52cb391c46f93abf6606e81", "id": 105338643, "location_subtype": "", "month": "2022-10"}, {"category": "violent-crime", "location_type": "Force", "location": {"latitude": "54.064979", "street": {"id": 1798085, "name": "On or near "}, "longitude": "-2.880396"}, "context": "", "outcome_status": {"category": "Unable to prosecute suspect", "date": "2022-10"}, "persistent_id": "79a8aefca94479fb1be253b289b3a844d67303678bd3e56e86f0cda1ec475a79", "id": 105341390, "location_subtype": "", "month": "2022-10"}, {"category": "violent-crime", "location_type": "Force", "location": {"latitude": "54.060989", "street": {"id": 1798454, "name": "On or near Globe Drive"}, "longitude": "-2.869205"}, "context": "", "outcome_status": {"category": "Under investigation", "date": "2022-10"}, "persistent_id": "6c910fc611a22711bbd312c58e994baf6279a13dbb225a4dd4df535735928c78", "id": 105335126, "location_subtype": "", "month": "2022-10"}, {"category": "violent-crime", "location_type": "Force", "location": {"latitude": "54.072609", "street": {"id": 1798521, "name": "On or near Back Crescent Street"}, "longitude": "-2.866850"}, "context": "", "outcome_status": {"category": "Under investigation", "date": "2022-10"}, "persistent_id": "f96b823b59739ce386e64908565817ff678aa34787f9517b4a58e8d52a0e9a57", "id": 105340065, "location_subtype": "", "month": "2022-10"}, {"category": "violent-crime", "location_type": "Force", "location": {"latitude": "54.063157", "street": {"id": 1797887, "name": "On or near Marlborough Road"}, "longitude": "-2.884957"}, "context": "", "outcome_status": {"category": "Under investigation", "date": "2022-10"}, "persistent_id": "887dd51c11b14f1ae1e79f9f001b9ec03c2767574e69b761d49e4743627db1ef", "id": 105340845, "location_subtype": "", "month": "2022-10"}, {"category": "violent-crime", "location_type": "Force", "location": {"latitude": "54.063157", "street": {"id": 1797887, "name": "On or near Marlborough Road"}, "longitude": "-2.884957"}, "context": "", "outcome_status": {"category": "Under investigation", "date": "2022-10"}, "persistent_id": "4cc37e5d1792bda4bba1f7a2c578cfc5526021ca6af1bf6ada2dd51ed57ae178", "id": 105341226, "location_subtype": "", "month": "2022-10"}, {"category": "violent-crime", "location_type": "Force", "location": {"latitude": "54.061283", "street": {"id": 1797794, "name": "On or near Granville Road"}, "longitude": "-2.886704"}, "context": "", "outcome_status": {"category": "Under investigation", "date": "2022-10"}, "persistent_id": "942ccf7ec8cc59b7c2416169d711cc19b3f11427271542ab8007d6c8834bbc2b", "id": 105333340, "location_subtype": "", "month": "2022-10"}, {"category": "violent-crime", "location_type": "Force", "location": {"latitude": "54.066487", "street": {"id": 1798404, "name": "On or near Acre Moss Lane"}, "longitude": "-2.869534"}, "context": "", "outcome_status": {"category": "Under investigation", "date": "2022-10"}, "persistent_id": "f374ba4865c1a9b265a2bd26dd9f3ef0b47743df719d6ccbb53d0923b1d1c298", "id": 105336721, "location_subtype": "", "month": "2022-10"}, {"category": "violent-crime", "location_type": "Force", "location": {"latitude": "54.060951", "street": {"id": 1797946, "name": "On or near Hampton Road"}, "longitude": "-2.884299"}, "context": "", "outcome_status": {"category": "Under investigation", "date": "2022-10"}, "persistent_id": "e7b526250a3bb44271d5bb63bc9e632ec642db4564bc9d2d31a7a34e8ec441f2", "id": 105340240, "location_subtype": "", "month": "2022-10"}, {"category": "violent-crime", "location_type": "Force", "location": {"latitude": "54.064979", "street": {"id": 1797777, "name": "On or near Sandylands Promenade"}, "longitude": "-2.886554"}, "context": "", "outcome_status": {"category": "Under investigation", "date": "2022-10"}, "persistent_id": "7c6622595f8ee32e03c962393b9d6290fa01e0a26f59cfaf670278e2b74eaa8d", "id": 105831080, "location_subtype": "", "month": "2022-10"}, {"category": "violent-crime", "location_type": "Force", "location": {"latitude": "54.071667", "street": {"id": 1798214, "name": "On or near Bath Street"}, "longitude": "-2.870421"}, "context": "", "outcome_status": {"category": "Under investigation", "date": "2022-10"}, "persistent_id": "3d4af7f5610db930d800b55a12312a1be68f2fc8cfd73659b298e232e28da46c", "id": 105340260, "location_subtype": "", "month": "2022-10"}, {"category": "violent-crime", "location_type": "Force", "location": {"latitude": "54.072609", "street": {"id": 1798521, "name": "On or near Back Crescent Street"}, "longitude": "-2.866850"}, "context": "", "outcome_status": {"category": "Under investigation", "date": "2022-10"}, "persistent_id": "c05632a4b3079bdbfd09dc5793243d71ccd658abdb4f68fc25c5b1efdd7117f1", "id": 105340286, "location_subtype": "", "month": "2022-10"}, {"category": "violent-crime", "location_type": "Force", "location": {"latitude": "54.061394", "street": {"id": 1797643, "name": "On or near Craig Street"}, "longitude": "-2.889961"}, "context": "", "outcome_status": {"category": "Unable to prosecute suspect", "date": "2022-10"}, "persistent_id": "7424fdc0c6edf03a3c4cf85f74ce42e4d4876958284bba91b8ddf68383ba8ea4", "id": 105330603, "location_subtype": "", "month": "2022-10"}, {"category": "violent-crime", "location_type": "Force", "location": {"latitude": "54.071667", "street": {"id": 1798214, "name": "On or near Bath Street"}, "longitude": "-2.870421"}, "context": "", "outcome_status": {"category": "Under investigation", "date": "2022-10"}, "persistent_id": "9fee8dbca1680c9eb476d5374130930719b45a8a17c5f9111741109ca340437b", "id": 105340421, "location_subtype": "", "month": "2022-10"}, {"category": "violent-crime", "location_type": "Force", "location": {"latitude": "54.063157", "street": {"id": 1797887, "name": "On or near Marlborough Road"}, "longitude": "-2.884957"}, "context": "", "outcome_status": {"category": "Under investigation", "date": "2022-10"}, "persistent_id": "9077ddc441addeb84656e9e163ce55cbab9b01a34556b5a585811f4c0a4a6983", "id": 105340936, "location_subtype": "", "month": "2022-10"}, {"category": "violent-crime", "location_type": "Force", "location": {"latitude": "54.060058", "street": {"id": 1798517, "name": "On or near Westgate"}, "longitude": "-2.863670"}, "context": "", "outcome_status": {"category": "Unable to prosecute suspect", "date": "2022-10"}, "persistent_id": "271eda6485b78aecac9661543eaf4c46ad4ace0742d2c96d8ae2400dc9f1e0c5", "id": 105337661, "location_subtype": "", "month": "2022-10"}, {"category": "violent-crime", "location_type": "Force", "location": {"latitude": "54.066971", "street": {"id": 1798609, "name": "On or near Hydeaway Court"}, "longitude": "-2.863432"}, "context": "", "outcome_status": {"category": "Unable to prosecute suspect", "date": "2022-10"}, "persistent_id": "fbaece08ddcc23aa694cb93df17092c6a385cddbcc96c563448b396b24c1e136", "id": 105338202, "location_subtype": "", "month": "2022-10"}, {"category": "violent-crime", "location_type": "Force", "location": {"latitude": "54.062363", "street": {"id": 1798284, "name": "On or near Windsor Road"}, "longitude": "-2.874306"}, "context": "", "outcome_status": {"category": "Investigation complete; no suspect identified", "date": "2022-10"}, "persistent_id": "1c4c66f8c5b0027f1ee2f183653dd9e73e5cba7b50c666fc1f4d45ac3092d4bf", "id": 105330928, "location_subtype": "", "month": "2022-10"}, {"category": "violent-crime", "location_type": "Force", "location": {"latitude": "54.064008", "street": {"id": 1798241, "name": "On or near Regent Road"}, "longitude": "-2.876678"}, "context": "", "outcome_status": {"category": "Under investigation", "date": "2022-10"}, "persistent_id": "bb8717a68441de696c28d8abf616093dce2d45f2da57b85faae9513df5d9dba4", "id": 105340481, "location_subtype": "", "month": "2022-10"}, {"category": "violent-crime", "location_type": "Force", "location": {"latitude": "54.072609", "street": {"id": 1798521, "name": "On or near Back Crescent Street"}, "longitude": "-2.866850"}, "context": "", "outcome_status": {"category": "Under investigation", "date": "2022-10"}, "persistent_id": "0a8b165b8a21a9ed0e67c5f7de712c65ea0c37c7719c2b0212913f787f7eb368", "id": 105340543, "location_subtype": "", "month": "2022-10"}, {"category": "violent-crime", "location_type": "Force", "location": {"latitude": "54.062617", "street": {"id": 1798414, "name": "On or near Ellesmere Grove"}, "longitude": "-2.870278"}, "context": "", "outcome_status": {"category": "Investigation complete; no suspect identified", "date": "2022-10"}, "persistent_id": "f0da3bb5ba0bd94a0ec9b3896357418d1451c4478bd7ef0ef25a6e6483b92ba0", "id": 105332005, "location_subtype": "", "month": "2022-10"}, {"category": "violent-crime", "location_type": "Force", "location": {"latitude": "54.066913", "street": {"id": 1798298, "name": "On or near Westminster Avenue"}, "longitude": "-2.873943"}, "context": "", "outcome_status": {"category": "Unable to prosecute suspect", "date": "2022-10"}, "persistent_id": "866f4bfc9153be0c747b99557d4548bdbf3d4770b451b2f3865bf8f9d8aa7d2f", "id": 105332961, "location_subtype": "", "month": "2022-10"}, {"category": "violent-crime", "location_type": "Force", "location": {"latitude": "54.064979", "street": {"id": 1798085, "name": "On or near "}, "longitude": "-2.880396"}, "context": "", "outcome_status": {"category": "Unable to prosecute suspect", "date": "2022-10"}, "persistent_id": "8b24ec69a1fa68d280344a80686cf76a331ee04441e188dfb07a8ecb7f722c28", "id": 105334554, "location_subtype": "", "month": "2022-10"}, {"category": "violent-crime", "location_type": "Force", "location": {"latitude": "54.068111", "street": {"id": 1798385, "name": "On or near West End Road"}, "longitude": "-2.871187"}, "context": "", "outcome_status": {"category": "Under investigation", "date": "2022-10"}, "persistent_id": "dd1156f424ba4994e8a5d6cdb869366fce8f6b05722864dc0bbe6edabeee0c66", "id": 105340580, "location_subtype": "", "month": "2022-10"}, {"category": "violent-crime", "location_type": "Force", "location": {"latitude": "54.068698", "street": {"id": 1798489, "name": "On or near Gardens Grove"}, "longitude": "-2.868266"}, "context": "", "outcome_status": {"category": "Under investigation", "date": "2022-10"}, "persistent_id": "f1e4ab39828619830d2ae47c713c88ea7328ad22f4c22abb81ce442bc98a3d69", "id": 105436867, "location_subtype": "", "month": "2022-10"}, {"category": "violent-crime", "location_type": "Force", "location": {"latitude": "54.063579", "street": {"id": 1798515, "name": "On or near Needham Avenue"}, "longitude": "-2.866509"}, "context": "", "outcome_status": {"category": "Unable to prosecute suspect", "date": "2022-10"}, "persistent_id": "9f212ca49d89246f80616c39abb79bb0dc7f22c2d5c8a9031eed0e6c93c2d52e", "id": 105337458, "location_subtype": "", "month": "2022-10"}, {"category": "violent-crime", "location_type": "Force", "location": {"latitude": "54.063224", "street": {"id": 1798092, "name": "On or near Westminster Road"}, "longitude": "-2.880726"}, "context": "", "outcome_status": {"category": "Unable to prosecute suspect", "date": "2022-10"}, "persistent_id": "5abc67ead2538edb6f3ee2ab0cadf1d7ee56375f42d63d616842eab0d473615e", "id": 105338858, "location_subtype": "", "month": "2022-10"}, {"category": "violent-crime", "location_type": "Force", "location": {"latitude": "54.060989", "street": {"id": 1798454, "name": "On or near Globe Drive"}, "longitude": "-2.869205"}, "context": "", "outcome_status": {"category": "Unable to prosecute suspect", "date": "2022-10"}, "persistent_id": "86149a48066a99f5f0cecb361096999f12ad46035a7ef300808722c427dde80b", "id": 105339043, "location_subtype": "", "month": "2022-10"}, {"category": "violent-crime", "location_type": "Force", "location": {"latitude": "54.062085", "street": {"id": 1798132, "name": "On or near Clevelands Walk"}, "longitude": "-2.879082"}, "context": "", "outcome_status": {"category": "Investigation complete; no suspect identified", "date": "2022-10"}, "persistent_id": "538bab0fb341df944140fd3154b0e4462594c6cd46be364282e48b517fd25e94", "id": 105339310, "location_subtype": "", "month": "2022-10"}, {"category": "violent-crime", "location_type": "Force", "location": {"latitude": "54.062363", "street": {"id": 1798284, "name": "On or near Windsor Road"}, "longitude": "-2.874306"},